{"relays_published":"2014-07-15 22:00:00",
"relays":[
{"nickname":"we","fingerprint":"21A5644E83A1D8BB17761AC94A27B39D5DD1A426","flags":["Fast","Running","Stable","Unnamed","Valid"],"latitude":38.0,"longitude":-97.0},
{"nickname":"Unnamed","fingerprint":"5977C3CE035DC5DE9D7A28D243A2CFA6BB172892","flags":["Fast","Guard","HSDir","Running","Stable","V2Dir","Valid"],"latitude":38.0,"longitude":-97.0},
{"nickname":"Nokia3310","fingerprint":"514D7648590766E8E6C3CCC8A2F8174E5A1FC716","flags":["Fast","Named","Running","V2Dir","Valid"],"latitude":41.9403,"longitude":25.5694},
{"nickname":"toriz0r","fingerprint":"A1781D87E06A79530AFD1504FCED4D6F25ECD8D5","flags":["Fast","Guard","Named","Running","Stable","Valid"],"latitude":52.5,"longitude":5.75},
{"nickname":"Unnamed","fingerprint":"88ECA65603B7A8E767491C45EA3C2212B10A71C8","flags":["Running","Valid"],"latitude":29.4889,"longitude":-98.3987},
{"nickname":"FinFlexBExit69","fingerprint":"C1AD5CCAFC5F0084D4611C6597D0EBE786289159","flags":["Fast","Named","Running","V2Dir","Valid"],"latitude":62.9,"longitude":27.6833},
{"nickname":"Pericles","fingerprint":"3F7CC06E45E55BA81E639E7F8AFF45CBC2BFEE21","flags":["Fast","Named","Running","Valid"],"latitude":37.8833,"longitude":-4.7667},
{"nickname":"mimeowmi","fingerprint":"C5AF894ED17F2D14A613E65478717F0765A1EF2A","flags":["Fast","Named","Running","Valid"],"latitude":42.9333,"longitude":-80.2833},
{"nickname":"EBMlover","fingerprint":"68F184ADAAD512FAC2CAB7A81BD04F9E612A8C5C","flags":["Fast","Guard","Named","Running","Stable","Valid"],"latitude":52.5,"longitude":5.75},
{"nickname":"Gibbio","fingerprint":"FA2D9DF823E9428A3889EF022BC2F5DC7C832B01","flags":["Exit","Fast","Running","V2Dir","Valid"],"latitude":48.86,"longitude":2.35},
{"nickname":"PPTOR0040","fingerprint":"F4D9B214CD96B1CD54AA1E07AD6097F2C5E5BAAD","flags":["Fast","Guard","HSDir","Running","Stable","Unnamed","V2Dir","Valid"],"latitude":49.75,"longitude":6.1667},
{"nickname":"ppp","fingerprint":"1F00CEDCF4DFAC7EF0EB5F63BE1915EFAA19D20A","flags":["Named","Running","Stable","Valid"],"latitude":51.0,"longitude":9.0},
{"nickname":"beagledom","fingerprint":"B5056136B9210B4DE6B2ED06269AB3000FAFEC9A","flags":["Fast","Guard","HSDir","Named","Running","Stable","V2Dir","Valid"],"latitude":40.7267,"longitude":-73.9981},
{"nickname":"AntiNSA","fingerprint":"1D40CB5F898FFE6F5C63B70952326158D08CAAE5","flags":["Fast","Running","V2Dir","Valid"],"latitude":48.0333,"longitude":16.6},
{"nickname":"Nickname","fingerprint":"F0A55B80B178B8982EBD4451970FF67C02E024CD","flags":["Named","Running","V2Dir","Valid"],"latitude":36.1333,"longitude":-5.35},
{"nickname":"LittleFoxTSA","fingerprint":"2AEC22D39B7E87C509C1B702A6FB18F8088BFDA0","flags":["Exit","Fast","HSDir","Running","Stable","V2Dir","Valid"],"latitude":51.0,"longitude":9.0},
{"nickname":"yuuko","fingerprint":"8F197DC8D960C6385A88C2121182940189658166","flags":["Named","Running","Stable","Valid"],"latitude":42.8864,"longitude":-78.8784},
{"nickname":"torhttpteapot","fingerprint":"984028FDD053406C8F1F5A5C29025EC91C018F74","flags":["Named","Running","V2Dir","Valid"],"latitude":48.9526,"longitude":2.1452},
{"nickname":"Grundeinkommen","fingerprint":"01073B494ACAB4375502DA9652D706F3161F51AE","flags":["Running","Unnamed","V2Dir","Valid"],"latitude":52.6167,"longitude":9.6833},
{"nickname":"SteamRelay","fingerprint":"B985FAF8241B1B27E15CC813E2253341C0278E07","flags":["Running","Stable","Valid"],"latitude":34.0234,"longitude":-84.6155},
{"nickname":"Unnamed","fingerprint":"4738A6C501AF71E320630EC29E730A9D1512F4DB","flags":["BadExit","Running","Valid"],"latitude":32.0,"longitude":53.0},
{"nickname":"myrnaloy","fingerprint":"8FF73B8FBFBF2CCB52A8E46A515418F97A69C812","flags":["Fast","Guard","HSDir","Named","Running","Stable","V2Dir","Valid"],"latitude":38.0,"longitude":-97.0},
{"nickname":"Unnamed","fingerprint":"BDB70C15A3DC5C19029BCB2E91F79F359BA2811E","flags":["Running","V2Dir","Valid"],"latitude":51.0,"longitude":9.0},
{"nickname":"zzzzz","fingerprint":"D169A69540877A8303C902385313197CD8BAED42","flags":["Fast","HSDir","Running","V2Dir","Valid"],"latitude":-33.9167,"longitude":151.1833},
{"nickname":"PPTOR0028","fingerprint":"1442C796FBDBAC1BDE038399E21077264839BC3A","flags":["Fast","HSDir","Running","Unnamed","V2Dir","Valid"]},
{"nickname":"Unnamed","fingerprint":"436B9C157D7F61F802529ED52C12615CF154C3CA","flags":["Fast","Running","Stable","Valid"],"latitude":52.5,"longitude":5.75},
{"nickname":"default","fingerprint":"8C7B3C34FE7F6B24A34719DCC28223EC6906D6CA","flags":["Fast","Running","V2Dir","Valid"],"latitude":48.6667,"longitude":9.5667},
{"nickname":"fabiantorrelay1","fingerprint":"3FDD30C353823F30E55EC4ABE08C7AB9A0713621","flags":["Fast","Named","Running","Stable","Valid"],"latitude":51.0,"longitude":9.0},
{"nickname":"smfd","fingerprint":"6BE929553CB378D76AB46A813FD9F73E94334E8C","flags":["Fast","Guard","HSDir","Named","Running","Stable","V2Dir","Valid"],"latitude":36.6738,"longitude":-76.857},
{"nickname":"mjolnirexit02","fingerprint":"0C453DD25CF0F9A2948132BCB4E915BA0F8CBFD8","flags":["Exit","Fast","Running","Stable","Unnamed","Valid"],"latitude":35.69,"longitude":139.69},
{"nickname":"lhenry","fingerprint":"0C43D0253FBD7C652E92687664B1C28328349033","flags":["Fast","Guard","HSDir","Named","Running","Stable","V2Dir","Valid"],"latitude":48.86,"longitude":2.35},
{"nickname":"default","fingerprint":"7A6975DAAF8A5DA5DCB033C46C28A625695AF846","flags":["Fast","Running","V2Dir","Valid"],"latitude":33.0735,"longitude":-96.9032},
{"nickname":"joker2k1","fingerprint":"B67BC288EA50C9AB8365034AD6EC1012B6C608EF","flags":["Fast","HSDir","Running","V2Dir","Valid"],"latitude":60.0,"longitude":100.0},
{"nickname":"default","fingerprint":"DFA74C0DB1A7D00202A265B4B40F0162FEA9C196","flags":["Running","V2Dir","Valid"],"latitude":21.3469,"longitude":-158.0183},
{"nickname":"moonlock","fingerprint":"0632B4D0FE855106CEF8FDA7A50106759E3D63DA","flags":["Fast","Named","Running","Valid"],"latitude":52.1542,"longitude":-106.6415},
{"nickname":"Thunderz","fingerprint":"FD75397E122D8557B0C3B3C9DB834ECDF2294491","flags":["Exit","Running","Valid"],"latitude":46.8,"longitude":-71.1667},
{"nickname":"Unnamed","fingerprint":"2077F6189ED0E432215EE09D6DFC01B232F2BC2D","flags":["Fast","Guard","HSDir","Running","V2Dir","Valid"],"latitude":35.0688,"longitude":-120.6092},
{"nickname":"Unnamed","fingerprint":"21F51167D97B8E3F04D48B78E5157FF631115378","flags":["Fast","Running","V2Dir","Valid"],"latitude":59.8944,"longitude":30.2642},
{"nickname":"Unnamed","fingerprint":"2167AEF197842C46E435F461E8ECC07D4FA0A6E6","flags":["Fast","Guard","HSDir","Running","Stable","V2Dir","Valid"],"latitude":51.0,"longitude":9.0},
{"nickname":"CypherpunksAR","fingerprint":"898DF4E091D123117EA00ED5B8F635384495A249","flags":["Named","Running","Valid"],"latitude":40.7209,"longitude":-74.0468},
{"nickname":"default","fingerprint":"E6B79E2403ACCB6B862CD2EA02FBC522C0D9DB22","flags":["Fast","HSDir","Running","V2Dir","Valid"],"latitude":35.5833,"longitude":139.765},
{"nickname":"Unnamed","fingerprint":"B64A955096F7B071852D644CCFF99459A99E06A5","flags":["Fast","Running","V2Dir","Valid"],"latitude":42.35,"longitude":-3.7},
{"nickname":"ididnteditheconfig","fingerprint":"720D255B6494216A2475D29AB9839802AA1481B8","flags":["HSDir","Running","Stable","V2Dir","Valid"],"latitude":39.0437,"longitude":-77.4875},
{"nickname":"LxcTorNode","fingerprint":"E1EEAA9167B40A367D9AB43033648800E9AE2E74","flags":["Fast","HSDir","Running","Stable","Unnamed","V2Dir","Valid"],"latitude":52.0278,"longitude":4.5123},
{"nickname":"TerNod","fingerprint":"0255521EDE8D935817119572F4D2513D546E296A","flags":["Fast","Named","Running","V2Dir","Valid"],"latitude":62.0,"longitude":15.0},
{"nickname":"safetag","fingerprint":"22E722DA5B7DCEE993D7633F518CC31CD02C823D","flags":["Fast","HSDir","Named","Running","Stable","V2Dir","Valid"],"latitude":39.4899,"longitude":-74.4773},
{"nickname":"tornado","fingerprint":"1327BC1F166BC7E008706A2D5C4DBE188CD30B4D","flags":["Exit","Fast","Running","Unnamed","Valid"],"latitude":32.8183,"longitude":-117.1966},
{"nickname":"PinoyPride","fingerprint":"D7C201A30F70C4A21164EDEA2399138C59A55BEA","flags":["Fast","Running","V2Dir","Valid"],"latitude":37.3338,"longitude":-121.8915},
{"nickname":"servbr6a","fingerprint":"833001F2564C38D0E6D5E2775C77CA7F50FD4CA4","flags":["Fast","Guard","HSDir","Named","Running","Stable","V2Dir","Valid"],"latitude":48.86,"longitude":2.35},
{"nickname":"pplcf","fingerprint":"25E2C322780ABAB0802E8BB8AE6453B6250D7743","flags":["Fast","Running","V2Dir","Valid"],"latitude":60.0,"longitude":100.0},
{"nickname":"DarkPhoenix","fingerprint":"1FA9E52898A50AB17F0256574306CF690DF79054","flags":["Fast","Named","Running","V2Dir","Valid"],"latitude":51.0,"longitude":9.0},
{"nickname":"ermito","fingerprint":"BC16E8B93DDB9B99159129B8D88C7F19113445BB","flags":["Exit","Named","Running","Valid"],"latitude":60.0,"longitude":100.0},
{"nickname":"default","fingerprint":"F928CF75590274AA46B60BDE1C893CC4DD8F616E","flags":["Fast","Running","V2Dir","Valid"],"latitude":45.6511,"longitude":-111.1777},
{"nickname":"TantalusViewpoint","fingerprint":"0DCB8E575BD9DF01A2833855A315AF5A677C2843","flags":["Fast","HSDir","Named","Running","Stable","V2Dir","Valid"],"latitude":38.9266,"longitude":-77.3936},
{"nickname":"accordant","fingerprint":"E57298288118934AD7E8C919F905758D66F015AD","flags":["Fast","Guard","HSDir","Named","Running","Stable","V2Dir","Valid"],"latitude":52.5,"longitude":5.75},
{"nickname":"Unnamed","fingerprint":"F87F1DB62E3CDB2583097621EEFF1E79BB8CA252","flags":["Exit","Fast","Running","V2Dir","Valid"],"latitude":39.5,"longitude":-8.0},
{"nickname":"vagina","fingerprint":"FC22A03FC19B21251703392CCD6899B0AFB25BC1","flags":["Exit","Fast","Guard","HSDir","Named","Running","Stable","V2Dir","Valid"],"latitude":52.0,"longitude":20.0},
{"nickname":"Windah","fingerprint":"5C4E1B53C4C3CC0A783E15A3E5C65A243D59C120","flags":["Fast","Guard","Named","Running","Stable","Valid"],"latitude":48.86,"longitude":2.35},
{"nickname":"DeKaN","fingerprint":"2B2E6694546A6D7FEE02A609E8A53B4BD8AD573D","flags":["Fast","HSDir","Running","Stable","V2Dir","Valid"],"latitude":62.0,"longitude":15.0},
{"nickname":"trillium","fingerprint":"33CB8081D97FF43EB82F9CF8DCDCFE2B6922BE30","flags":["Exit","Fast","Guard","HSDir","Running","Stable","Unnamed","V2Dir","Valid"],"latitude":46.0,"longitude":25.0},
{"nickname":"Bolitar","fingerprint":"B7A6137177F9A6A9D6439CE966C3296A9198B976","flags":["Fast","Guard","HSDir","Named","Running","Stable","V2Dir","Valid"],"latitude":48.86,"longitude":2.35},
{"nickname":"Unnamed","fingerprint":"43F2C5EB24B78779D017A4D49B99463ABA6EE2F1","flags":["Fast","Running","Valid"],"latitude":22.2833,"longitude":114.15},
{"nickname":"Unnamed","fingerprint":"AE90CE04E7CA96367BB2F1BEE72678F987A85C32","flags":["Fast","Running","Stable","Valid"],"latitude":32.9647,"longitude":-80.2015},
{"nickname":"rasptorwei","fingerprint":"5C5C06D7EEA2FA859792CB035318D1E97ACD0C7A","flags":["Fast","Guard","Named","Running","Stable","Valid"],"latitude":51.0,"longitude":9.0},
{"nickname":"LogsGOTOdevNULL","fingerprint":"88F9C9EFDD20F767E1F78193B20EDEEDE6EC2762","flags":["Fast","Guard","HSDir","Named","Running","Stable","V2Dir","Valid"],"latitude":51.0,"longitude":9.0},
{"nickname":"cheltor","fingerprint":"E28F0E449B3CEC79E0E39D2D5A8D40B338DCADA3","flags":["Fast","Named","Running","V2Dir","Valid"],"latitude":51.8755,"longitude":-2.2361},
{"nickname":"semperAMS","fingerprint":"78638AD08E54B8AC39D6896C352D844176C3054F","flags":["Fast","Named","Running","Stable","Valid"],"latitude":52.35,"longitude":4.9167},
{"nickname":"d6relay","fingerprint":"6EF897645B79B6CB35E853B32506375014DE3621","flags":["Fast","Guard","HSDir","Named","Running","Stable","V2Dir","Valid"],"latitude":52.35,"longitude":4.9167},
{"nickname":"RedElf","fingerprint":"1E51926C5FC107219B5BC374E8A36CAA6169A952","flags":["Fast","Guard","Running","Stable","Valid"],"latitude":35.69,"longitude":139.69},
{"nickname":"DefectX11","fingerprint":"4CBFAA80DACEBA01B5485C6BA67F79BAA6D94ADD","flags":["Named","Running","V2Dir","Valid"],"latitude":49.2738,"longitude":-123.161},
{"nickname":"IzMeow","fingerprint":"B3CF8717737530A09884CFEC4884442548F3D8C3","flags":["Fast","Guard","HSDir","Named","Running","V2Dir","Valid"],"latitude":56.75,"longitude":14.9167},
{"nickname":"Unnamed","fingerprint":"FE40B763AF53C04A8C74DA8C964D3B203163BB1D","flags":["Fast","Guard","HSDir","Running","Stable","V2Dir","Valid"],"latitude":51.0,"longitude":9.0},
{"nickname":"spfTOR4e3","fingerprint":"5CF34032536306A64CFE9F5D3393AE6E46CFAE78","flags":["Exit","Fast","Guard","HSDir","Running","Stable","Unnamed","V2Dir","Valid"],"latitude":47.0,"longitude":8.0},
{"nickname":"torramblecmd","fingerprint":"D9D16F90DAAE6B4E41C3F7FB2DE3F119DE7CA31F","flags":["Fast","Named","Running","Valid"],"latitude":48.86,"longitude":2.35},
{"nickname":"default","fingerprint":"B289C524191EEEC65E706085656C55B7ACBCEC36","flags":["Fast","Running","V2Dir","Valid"],"latitude":60.0,"longitude":100.0},
{"nickname":"marcuse2","fingerprint":"C656B41AEFB40A141967EBF49D6E69603C9B4A11","flags":["Exit","Fast","Guard","HSDir","Running","Stable","Unnamed","V2Dir","Valid"],"latitude":48.86,"longitude":2.35},
{"nickname":"diapod","fingerprint":"B990355183017090E347EC55EF6CB1BD30311C2F","flags":["Fast","Named","Running","Valid"],"latitude":51.65,"longitude":6.1833},
{"nickname":"sparebandwidth","fingerprint":"4121736109FD5C5521733D714D66942B3B20B770","flags":["Fast","Guard","Named","Running","Stable","Valid"],"latitude":49.4478,"longitude":11.0683},
{"nickname":"Unnamed","fingerprint":"D3CE13BF7C65C66EB2308BD046DA15318AEBEA80","flags":["Fast","Running","V2Dir","Valid"],"latitude":38.0,"longitude":-97.0},
{"nickname":"Muttley","fingerprint":"C49F68C913AF927877C653471FE813FA182076F1","flags":["Running","V2Dir","Valid"],"latitude":45.65,"longitude":0.15},
{"nickname":"default","fingerprint":"2255D5EC89C30D1FE7A5D70B9F98620D95887DC2","flags":["Fast","Running","V2Dir","Valid"],"latitude":51.0,"longitude":9.0},
{"nickname":"hactive","fingerprint":"1CD09A2273EAEC9EA1D55819CD97DE241D94844B","flags":["Running","Valid"],"latitude":33.8047,"longitude":-118.3523},
{"nickname":"iAMp0wned","fingerprint":"1BD0C273D627472B9595783411F0343AF5BE8D4C","flags":["Exit","Fast","Guard","HSDir","Running","Stable","V2Dir","Valid"],"latitude":51.0,"longitude":9.0},
{"nickname":"delfininterior","fingerprint":"9FC5CD198007019647B4A02C24696C51F93F290B","flags":["Running","Unnamed","V2Dir","Valid"],"latitude":40.0,"longitude":-4.0},
{"nickname":"aneyo","fingerprint":"DD13BA2DFDFC46B996A92A22B7DD49D1212BFE03","flags":["Fast","HSDir","Running","V2Dir","Valid"],"latitude":39.4562,"longitude":-77.5667},
{"nickname":"Unnamed","fingerprint":"295864F314B388E3AC9275B44BFE9766CB5667F7","flags":["Fast","Running","Valid"],"latitude":52.339,"longitude":9.8288},
{"nickname":"duck","fingerprint":"5FC2173D84CBB652F9FDD828E8CAB461B3748F78","flags":["Fast","Named","Running","V2Dir","Valid"],"latitude":60.0,"longitude":100.0},
{"nickname":"namenick","fingerprint":"1E89EE37144AD743E877932B445B6547AB392688","flags":["Fast","HSDir","Named","Running","V2Dir","Valid"],"latitude":40.5183,"longitude":-74.3969},
{"nickname":"reflector","fingerprint":"8356D7F4D430EA2F951F9571408C75293ED83868","flags":["Fast","Guard","Named","Running","Stable","Valid"],"latitude":40.7267,"longitude":-73.9981},
{"nickname":"tortorhood","fingerprint":"7F9E7D613C80F1941B76352A6A97894F1470176B","flags":["Fast","Guard","HSDir","Named","Running","Stable","V2Dir","Valid"],"latitude":52.0938,"longitude":5.1191},
{"nickname":"abgtor","fingerprint":"340B3A80105BDCEA3A625F3DBBAAEC94D19EAFE7","flags":["Fast","Guard","HSDir","Named","Running","Stable","V2Dir","Valid"],"latitude":42.6833,"longitude":23.3167},
{"nickname":"domob","fingerprint":"D5C1D19CEEF13DEAD2328A7CD61991A8FDF62176","flags":["Fast","HSDir","Running","Stable","Unnamed","V2Dir","Valid"],"latitude":48.86,"longitude":2.35},
{"nickname":"halcyon","fingerprint":"71DD3C8354A40B23759EDBA4A6DD4F49A82A1BFC","flags":["Fast","Guard","HSDir","Named","Running","Stable","V2Dir","Valid"],"latitude":60.0,"longitude":100.0},
{"nickname":"default","fingerprint":"6DDD8EB1534C32079DBEE4A72D3A3E984A4E8765","flags":["Running","V2Dir","Valid"],"latitude":52.5683,"longitude":-3.0109},
{"nickname":"472947","fingerprint":"9BE688AC2554C944D802A9B29A0561D6B067B8BA","flags":["Fast","Running","Unnamed","V2Dir","Valid"],"latitude":49.1369,"longitude":8.9103},
{"nickname":"anonim","fingerprint":"F5CDC629D6A4D3BABF7F08979E06455C71D3CA44","flags":["Running","Unnamed","V2Dir","Valid"],"latitude":53.9168,"longitude":30.3449},
{"nickname":"TitleIII","fingerprint":"890C4364EB00E9603A88BED9FF4F0DA07FA46786","flags":["Fast","Guard","Named","Running","Stable","Valid"],"latitude":38.0,"longitude":-97.0},
{"nickname":"DanWue","fingerprint":"F7B1CF7B0B6C2EFD6144BBDF5329AC63D17116CF","flags":["Exit","Fast","Guard","HSDir","Named","Running","Stable","V2Dir","Valid"],"latitude":59.4339,"longitude":24.7281},
{"nickname":"HenryGreen","fingerprint":"BD3A7610CB237696E7ACC5FA818A574261957C57","flags":["Exit","Fast","Running","Unnamed","V2Dir","Valid"],"latitude":29.7044,"longitude":-98.0742},
{"nickname":"Unnamed","fingerprint":"4D3E4FB0B9E9A81AEA259BDDE74EF70EB68FA37D","flags":["BadExit","Running","V2Dir","Valid"],"latitude":30.6693,"longitude":50.2055},
{"nickname":"hviv1024","fingerprint":"0A637C5DB578C91CCA498C3400BFBEDFDB081F07","flags":["Exit","Fast","Guard","Named","Running","Stable","Valid"],"latitude":47.0056,"longitude":28.8575},
{"nickname":"Unnamed","fingerprint":"69BB729AB076145AD9BFE87FE1DC396A588DB78F","flags":["Running","V2Dir","Valid"],"latitude":58.5167,"longitude":31.2833},
{"nickname":"NotWillingToName","fingerprint":"3C3D438761F009A7603B0E12201C13096DBE67A9","flags":["Running","Valid"],"latitude":62.5667,"longitude":23.0667},
{"nickname":"fruitninja","fingerprint":"AD16AF14F1C9A5D904807D4224699C8D76931E8F","flags":["Exit","Fast","Named","Running","Stable","Valid"],"latitude":22.2833,"longitude":114.15},
{"nickname":"nasser","fingerprint":"97137331A3E5924784893C634C9AB140647849FE","flags":["Named","Running","Valid"],"latitude":25.0,"longitude":45.0},
{"nickname":"anduinExit01","fingerprint":"5D263037FC175596B3A344132B0B755EB8FB1D1C","flags":["Exit","Fast","Guard","HSDir","Named","Running","Stable","V2Dir","Valid"],"latitude":62.0,"longitude":10.0},
{"nickname":"CicciaBombaI","fingerprint":"178DFB97B972FC69FC1F87CDF17C0F44ADBDF26D","flags":["Fast","Named","Running","V2Dir","Valid"],"latitude":48.8026,"longitude":9.2177},
{"nickname":"dizum","fingerprint":"7EA6EAD6FD83083C538F44038BBFA077587DD755","flags":["Authority","Fast","Guard","HSDir","Named","Running","Stable","V2Dir","Valid"],"latitude":52.5,"longitude":5.75},
{"nickname":"Dontbleed3","fingerprint":"ECA172090FEBE56ECA701CEF8843BAD05A7B4A9E","flags":["Exit","Fast","Guard","Named","Running","Stable","Valid"],"latitude":37.5155,"longitude":-121.8962},
{"nickname":"SamLowry","fingerprint":"A3DB15EBA2F8F2E4AEDF8849DE9529EB8ED73421","flags":["Fast","Running","Unnamed","V2Dir","Valid"],"latitude":40.7849,"longitude":-77.847},
{"nickname":"th0rnsrelay","fingerprint":"5AE44E011D7D5F243C4C50C5718DDA349364D967","flags":["Exit","Fast","Named","Running","Valid"],"latitude":51.65,"longitude":6.1833},
{"nickname":"default","fingerprint":"A8E8805029D4A4D913A1A873621BA622F4D4D53D","flags":["Exit","Fast","Running","V2Dir","Valid"],"latitude":38.8922,"longitude":-76.7681},
{"nickname":"default","fingerprint":"BEB9565D250B702A218B2C9332EAF3C7C32E187A","flags":["Running","V2Dir","Valid"],"latitude":48.86,"longitude":2.35},
{"nickname":"newbadguy","fingerprint":"B545F53C2C4201E4A818514FB2EF9B42F32A58C4","flags":["Exit","Fast","Guard","Named","Running","Stable","Valid"],"latitude":51.65,"longitude":6.1833},
{"nickname":"torgandalftor","fingerprint":"2422F47630E9F0B10465B4E07D4D58C13EAFAD8A","flags":["Fast","Named","Running","V2Dir","Valid"],"latitude":52.0333,"longitude":8.9},
{"nickname":"cristorIsblack","fingerprint":"15CA200E1627B95DF337E52E51673651AE3079B0","flags":["Fast","Named","Running","Stable","Valid"],"latitude":39.3333,"longitude":16.1833},
{"nickname":"weirdNET","fingerprint":"030EBA6B79EABC3A4E6125242F703C2F3EC9E5E5","flags":["Exit","HSDir","Running","V2Dir","Valid"],"latitude":55.7157,"longitude":12.398},
{"nickname":"FruitLoops","fingerprint":"2214D5AFEC82CD4D10F8B3D133C06AF5BF152B17","flags":["Exit","Fast","Guard","HSDir","Running","Stable","Unnamed","V2Dir","Valid"],"latitude":49.75,"longitude":6.1667},
{"nickname":"Unnamed","fingerprint":"D8EDFAC7E97AC3F437F0863CE5C7B2AABF6C6719","flags":["Fast","Guard","HSDir","Running","Stable","V2Dir","Valid"],"latitude":56.0,"longitude":24.0},
{"nickname":"nyxTor","fingerprint":"121BFD93886204B3786705A24DB91055B0D136E8","flags":["Fast","Guard","HSDir","Running","Stable","Unnamed","V2Dir","Valid"],"latitude":37.9833,"longitude":23.7333},
{"nickname":"LazyWrench","fingerprint":"E9B475D88B8BF2942AA0018AD49CED133C83C2BE","flags":["Fast","HSDir","Named","Running","Stable","V2Dir","Valid"],"latitude":42.7257,"longitude":-84.636},
{"nickname":"Torry","fingerprint":"BD3EAB53F36548EDE049808CB22ADB2F157CB3E1","flags":["Fast","Guard","HSDir","Named","Running","Stable","V2Dir","Valid"],"latitude":46.0,"longitude":15.0},
{"nickname":"riseupshell","fingerprint":"1D46A267538EFA2FB195AD48E2836C14B716B992","flags":["Fast","Guard","Running","Stable","Unnamed","Valid"],"latitude":38.0,"longitude":-97.0},
{"nickname":"melablu","fingerprint":"A73DD9707B16489B378B93F5EA4FF52A17CFFF7C","flags":["Exit","Named","Running","Valid"],"latitude":45.565,"longitude":12.235},
{"nickname":"mbTorServerNode","fingerprint":"E18E0924B390CA10E0402D565BFC595B7678ABBB","flags":["Fast","Guard","HSDir","Named","Running","Stable","V2Dir","Valid"],"latitude":51.0,"longitude":9.0},
{"nickname":"azdarkstar","fingerprint":"0F5100625F6AE003E72011304F43DD4710E02898","flags":["Running","Stable","Valid"],"latitude":33.508,"longitude":-112.1254},
{"nickname":"default","fingerprint":"835AFD952C0F4DEC8F1A35C4C2BAD2C7BB46BB5D","flags":["Running","Valid"],"latitude":51.0,"longitude":9.0},
{"nickname":"default","fingerprint":"2D5FFF68061F863543FDE489C114982E3D9EA004","flags":["Fast","Running","V2Dir","Valid"],"latitude":24.6537,"longitude":46.7152},
{"nickname":"lovelyspam","fingerprint":"4268AEB78A208FC8D447FE8837A9C0A4286EDE82","flags":["Fast","HSDir","Running","V2Dir","Valid"],"latitude":43.0,"longitude":25.0},
{"nickname":"dxp","fingerprint":"F464FF005B971213CCD79A6AF2FEDFB315690436","flags":["Exit","Running","V2Dir","Valid"],"latitude":33.8661,"longitude":-118.0528},
{"nickname":"deabler","fingerprint":"F5B0F007931EACB5FF5E7AAE6D787048CD664D4E","flags":["Fast","Running","Unnamed","Valid"],"latitude":60.0,"longitude":100.0},
{"nickname":"DLK","fingerprint":"03C68D919C13955572C026BACED31DDCB1F55B4D","flags":["Named","Running","Stable","Valid"],"latitude":51.0,"longitude":9.0},
{"nickname":"getrekt","fingerprint":"37ADE79DB453FC3380576F409F2C725979259D5F","flags":["Fast","Guard","HSDir","Running","Stable","Unnamed","V2Dir","Valid"],"latitude":41.8194,"longitude":-87.6079},
{"nickname":"yahyaoui","fingerprint":"4024B658462568C7E21A486006BEC60B244E86D8","flags":["Exit","Fast","Guard","Running","Stable","Unnamed","Valid"],"latitude":52.5,"longitude":5.75},
{"nickname":"default","fingerprint":"771A970E37CCB5A745191CF28D74B3079C7209B6","flags":["Fast","Running","V2Dir","Valid"],"latitude":51.0,"longitude":9.0},
{"nickname":"fedexfr","fingerprint":"8F04409BCC940511A79B9158630C0FD4A38DFD3A","flags":["Fast","Named","Running","Stable","Valid"],"latitude":49.75,"longitude":6.1667},
{"nickname":"jegoRelay005","fingerprint":"4536904F15DAE199F75ECBB2AFBF731E4B023F7D","flags":["Fast","Running","Stable","Valid"],"latitude":47.3333,"longitude":13.3333},
{"nickname":"Unnamed","fingerprint":"8A4A6EF8E6A4D64B266F7D67F9A3277D018A9ACF","flags":["Running","V2Dir","Valid"],"latitude":50.6867,"longitude":14.5381},
{"nickname":"TorReodor","fingerprint":"13432EF81650EA83E86C0867817313815BE11749","flags":["Fast","Guard","Named","Running","Stable","Valid"],"latitude":60.0,"longitude":100.0},
{"nickname":"default","fingerprint":"C740142B90D1ED8B6F928BEF9626CE02CFBF28DA","flags":["Fast","Running","V2Dir","Valid"],"latitude":49.75,"longitude":15.5},
{"nickname":"default","fingerprint":"F2A7AC9B034FA4D5CCD1EDA137BC2B596E5741A9","flags":["Running","V2Dir","Valid"],"latitude":53.6591,"longitude":9.8009},
{"nickname":"Unnamed","fingerprint":"9067F64B842EA7143F89D7F17F83E3605DE8AEA8","flags":["Running","V2Dir","Valid"],"latitude":37.57,"longitude":126.98},
{"nickname":"Unnamed","fingerprint":"1246C2D4288707262DA9A515EADE243CFD63AD56","flags":["Exit","Running","Valid"],"latitude":49.0,"longitude":32.0},
{"nickname":"blueboot","fingerprint":"59FA5AD4D37706466E5CBE3C8BA63D61FD850AA6","flags":["Fast","Guard","HSDir","Named","Running","Stable","V2Dir","Valid"],"latitude":51.0,"longitude":9.0},
{"nickname":"spacecowboy","fingerprint":"6DE93EE8597DAA086D5F23C2F32BFD4DCF64ED11","flags":["Fast","Named","Running","V2Dir","Valid"],"latitude":48.1414,"longitude":11.502},
{"nickname":"Unnamed","fingerprint":"1060B2624DD85A138DB408F4EF6865BE09ED8EC3","flags":["Running","V2Dir","Valid"],"latitude":62.0,"longitude":10.0},
{"nickname":"UbunTorRev2","fingerprint":"8A53013D71A2A466E643396FF321F5C8C5981CD9","flags":["Fast","Guard","HSDir","Running","Stable","Unnamed","V2Dir","Valid"],"latitude":22.2833,"longitude":114.15},
{"nickname":"NoSpam5","fingerprint":"E92F72473D97A1D6D07EC3741FCE6FAD39A3CE14","flags":["Running","V2Dir","Valid"],"latitude":51.0,"longitude":9.0},
{"nickname":"atestonly","fingerprint":"FF7BAA614F0E2520D2D060851BC98782C3C27239","flags":["Fast","Running","V2Dir","Valid"],"latitude":50.1019,"longitude":8.6342},
{"nickname":"captainmoondust","fingerprint":"D6D18757B11B14D83D01B642D4AC6F5BEC10F2ED","flags":["Fast","Guard","HSDir","Named","Running","Stable","V2Dir","Valid"],"latitude":52.2115,"longitude":5.2922},
{"nickname":"nationalliberal","fingerprint":"FC8CFD6E967E52B4628827B626E98DE689837C8B","flags":["Exit","Fast","Guard","HSDir","Running","Stable","Unnamed","V2Dir","Valid"],"latitude":38.6312,"longitude":-90.1922},
{"nickname":"Unnamed","fingerprint":"62FED211A4424658670D4118894845226A367D9A","flags":["Exit","Fast","Running","Valid"],"latitude":48.86,"longitude":2.35},
{"nickname":"klaboe","fingerprint":"BF80A774C59950F3F3AB2F42D92E6784F7A4D16E","flags":["Fast","HSDir","Running","V2Dir","Valid"],"latitude":52.5581,"longitude":5.8978},
{"nickname":"nikola","fingerprint":"C1486A823D0B0DB7EA43AE11DC2A95F697F1A456","flags":["Fast","Guard","Named","Running","Stable","Valid"],"latitude":51.5,"longitude":-0.13},
{"nickname":"AtlantisHome1","fingerprint":"A58570E4B690107929532048AC3674E4603AFF19","flags":["Fast","HSDir","Running","Stable","V2Dir","Valid"],"latitude":51.3833,"longitude":8.0833},
{"nickname":"AnotherOneAtHome","fingerprint":"D0DBC9E5B576AF83C0242C9E4CB26ED466065394","flags":["Exit","Fast","Running","Valid"],"latitude":50.9333,"longitude":6.95},
{"nickname":"LackofCreativity","fingerprint":"A62DE5E31B8672EE833BCD2D6EB8058FDA0C587D","flags":["Fast","Guard","Running","Stable","Valid"],"latitude":28.5445,"longitude":-81.3706},
{"nickname":"default","fingerprint":"D6630D9B5CD6C4C2A09A76A5E821AFFC3BB05C3B","flags":["Running","V2Dir","Valid"],"latitude":51.45,"longitude":7.0167},
{"nickname":"default","fingerprint":"BE39BD1243650BC28C91FA98C38EE70236157B1F","flags":["Exit","Running","V2Dir","Valid"],"latitude":41.0,"longitude":20.0},
{"nickname":"ThankYouEddi","fingerprint":"5729D07DB7EA83F4AEC42F2F37C8CEDD498E4778","flags":["Running","Valid"],"latitude":52.5333,"longitude":10.3667},
{"nickname":"jessiepinkman","fingerprint":"B71E859EEC28EEFD406D3880D11FF96D94756B4F","flags":["Fast","Guard","Named","Running","Stable","Valid"],"latitude":40.7143,"longitude":-74.006},
{"nickname":"OkupiedAmerika","fingerprint":"5084BF09EEE401F75A57D1E9FC45DB8F51BC65FC","flags":["Running","Unnamed","V2Dir","Valid"],"latitude":36.3084,"longitude":-95.3169},
{"nickname":"default","fingerprint":"3D450F5CA0E8BEDD734A46D9A077E0C98FF96F33","flags":["Running","V2Dir","Valid"],"latitude":34.9874,"longitude":-79.232},
{"nickname":"AutosysRussia","fingerprint":"D20A7D6B873EB4BB0834D494C4691BE5D3050DB3","flags":["Exit","Fast","Guard","HSDir","Named","Running","Stable","V2Dir","Valid"],"latitude":55.0968,"longitude":36.6101},
{"nickname":"TorBro88171","fingerprint":"0B05613DC69D93D682E1C2702D0F48FFB3976669","flags":["Fast","Guard","Named","Running","Stable","Valid"],"latitude":48.86,"longitude":2.35},
{"nickname":"default","fingerprint":"1D77134A0D66CC846FB53B07F20F148C720E54C6","flags":["Fast","Running","V2Dir","Valid"],"latitude":51.0,"longitude":9.0},
{"nickname":"PPTOR0012","fingerprint":"8BD4DF1DD0726E05FCC7EDDED818CEED4D600227","flags":["Fast","Guard","HSDir","Running","Stable","Unnamed","V2Dir","Valid"],"latitude":27.0,"longitude":30.0},
{"nickname":"Meadowcakes","fingerprint":"5C5FC9653130D16AB965E1C7F4F7C45F80FCA08F","flags":["Running","Unnamed","Valid"],"latitude":51.95,"longitude":-0.2667},
{"nickname":"testnode","fingerprint":"44AF0A17C2379637B21CF46BD4AEFA4553660D18","flags":["Fast","Guard","HSDir","Named","Running","V2Dir","Valid"],"latitude":35.685,"longitude":139.7514},
{"nickname":"lastexittobrooklyn","fingerprint":"AC9299327B38503B9E1D0C7D562B66C6C5F06C77","flags":["Fast","Running","Unnamed","V2Dir","Valid"],"latitude":49.75,"longitude":6.1667},
{"nickname":"Hoober","fingerprint":"338D4E0369367951C1E8EBE0F790E236B3C09F95","flags":["Fast","Guard","HSDir","Running","Stable","Unnamed","V2Dir","Valid"],"latitude":38.0,"longitude":-97.0},
{"nickname":"default","fingerprint":"8BA91696B7EA29574A6E22A8AF24BEC195261856","flags":["Running","V2Dir","Valid"],"latitude":35.685,"longitude":139.7514},
{"nickname":"default","fingerprint":"9F4BD23EB00F93FE11F9911CC04E279C31F55516","flags":["Fast","Running","V2Dir","Valid"],"latitude":51.5,"longitude":12.0},
{"nickname":"Idonteven","fingerprint":"78FD30E37A9F31538E8AC07FBA6DC30087B7412C","flags":["Running","V2Dir","Valid"],"latitude":33.9719,"longitude":-117.2526},
{"nickname":"Unnamed","fingerprint":"C74A3FA0C487D08E54776B77CFF2656340F3B59A","flags":["Fast","Guard","Running","Stable","V2Dir","Valid"],"latitude":60.1756,"longitude":24.9342},
{"nickname":"Jere","fingerprint":"1BB6D70599563774C4077780BA31089817BFD48A","flags":["Fast","Running","V2Dir","Valid"],"latitude":60.0,"longitude":100.0},
{"nickname":"Jalapiano","fingerprint":"66658711CDBB88FBEF89240114ED43654B1401E8","flags":["Fast","Named","Running","Valid"],"latitude":43.0761,"longitude":-89.4104},
{"nickname":"wenoehuyuarr","fingerprint":"56FA50D8CD8C32CFE6559E836138613387E3E5EF","flags":["Exit","Fast","HSDir","Named","Running","Stable","V2Dir","Valid"],"latitude":39.4899,"longitude":-74.4773},
{"nickname":"dogemarch","fingerprint":"FA8E05E0409B005F8907E7E21D7A4C1FE7E6D536","flags":["Fast","Running","Stable","Unnamed","Valid"],"latitude":47.3667,"longitude":8.55},
{"nickname":"OnionOnMyBelt","fingerprint":"412A8C96B65E80DCD2020A0416DDD57B81AEA5E3","flags":["Fast","Guard","HSDir","Named","Running","Stable","V2Dir","Valid"],"latitude":39.1093,"longitude":-84.6209},
{"nickname":"NochnoiDozor","fingerprint":"1A5DD3B47C1F4141DCE03514F8C9442A27DFCDE6","flags":["Fast","Named","Running","V2Dir","Valid"],"latitude":51.0,"longitude":9.0},
{"nickname":"Unnamed","fingerprint":"31020D29F45C92F318C4D705ADBC3BFFBF6D1820","flags":["BadExit","Running","Valid"],"latitude":32.6572,"longitude":51.6776},
{"nickname":"Unnamed","fingerprint":"99E265659F76D780717835EDA503BF5688357F41","flags":["Fast","HSDir","Running","V2Dir","Valid"],"latitude":34.1905,"longitude":-119.23},
{"nickname":"default","fingerprint":"9DB936AD500F9B5B9E6411B051F5DFCEB25F9B67","flags":["Exit","Fast","Running","V2Dir","Valid"],"latitude":44.8833,"longitude":-0.65},
{"nickname":"putinpidor","fingerprint":"67AC0EC364BE67273C422121EA9EF14623E0820A","flags":["Fast","Running","Unnamed","V2Dir","Valid"],"latitude":57.8766,"longitude":48.5103},
{"nickname":"wombat","fingerprint":"BFD120625C0C6029BF652E255457C4DDD1D6A793","flags":["Fast","Named","Running","Stable","Valid"],"latitude":34.0943,"longitude":-118.3811},
{"nickname":"Unnamed","fingerprint":"77FDC152453B09DD99312EE9298A84A7A842EABD","flags":["Exit","Fast","HSDir","Running","V2Dir","Valid"],"latitude":60.0,"longitude":100.0},
{"nickname":"torrelay2madavide","fingerprint":"4A141A40FA0492F0B555B25B2541ABABA02CFCA2","flags":["Exit","Fast","Running","Stable","V2Dir","Valid"],"latitude":52.5167,"longitude":13.4},
{"nickname":"Tor5ByHostplanet","fingerprint":"BBD3DD8DA277C9567CEB081D3A30D04A61D46900","flags":["Fast","Named","Running","V2Dir","Valid"],"latitude":48.86,"longitude":2.35},
{"nickname":"default","fingerprint":"92E953A73F8EE86BB3B764F05047E980794AA7E4","flags":["Running","V2Dir","Valid"],"latitude":15.0,"longitude":48.0},
{"nickname":"136470674","fingerprint":"2CFD4DEBC6D059BA3D1D8A71EE239A0FE84E0B77","flags":["Fast","Guard","Named","Running","Stable","Valid"],"latitude":42.9864,"longitude":-78.7279},
{"nickname":"SerembanPuru","fingerprint":"E4A0A1DB193A3D8CEB0B5B85C432C6536E22CB40","flags":["Exit","Named","Running","Stable","Valid"],"latitude":23.5,"longitude":121.0},
{"nickname":"Unnamed","fingerprint":"D1A173B96DB01A3BCB9119D7294A43587B5195E8","flags":["Fast","Running","Valid"],"latitude":49.8407,"longitude":24.0305},
{"nickname":"default","fingerprint":"4E431F9F658AD2864A4B65550C4254151AB2D302","flags":["Fast","HSDir","Running","V2Dir","Valid"],"latitude":39.6929,"longitude":-104.8847},
{"nickname":"SaxonyNQ","fingerprint":"56F168560BB83942CB5207C5687638AF4F649CB4","flags":["Fast","Named","Running","Stable","Valid"],"latitude":51.0,"longitude":9.0},
{"nickname":"R3dLabz","fingerprint":"F690D5114B5118321A52DFF177153C15EFCA8CCD","flags":["Fast","HSDir","Running","V2Dir","Valid"],"latitude":42.6849,"longitude":-73.8318},
{"nickname":"cmutornode","fingerprint":"78C7C299DB4C4BD119A22B87B57D5AF5F3741A79","flags":["Exit","Fast","Guard","HSDir","Running","Stable","Unnamed","V2Dir","Valid"],"latitude":40.4439,"longitude":-79.9561},
{"nickname":"chaoxrelay","fingerprint":"1099983E2C5C3ECDAD0B7D5AABD2AC6BF2CBBF70","flags":["Fast","Guard","Named","Running","Stable","Valid"],"latitude":51.0,"longitude":9.0},
{"nickname":"default","fingerprint":"176ACB240C5C57AF49A2374C09C0C73309E17257","flags":["Running","V2Dir","Valid"],"latitude":52.7317,"longitude":41.4433},
{"nickname":"ramoth","fingerprint":"E58412BFD8FB786F40065B371CAD20F2F4044072","flags":["Exit","Named","Running","Valid"],"latitude":42.7422,"longitude":-84.5255},
{"nickname":"OrbotRelayTablet","fingerprint":"0F0E4F623E68DE17F4E4E96A673E25E8464310E7","flags":["Named","Running","Valid"],"latitude":-10.0,"longitude":-55.0},
{"nickname":"arlen","fingerprint":"52D01E36AE48A33CD028E040EAA434605E9E4BDD","flags":["Fast","Guard","Running","Stable","Unnamed","Valid"],"latitude":39.4899,"longitude":-74.4773},
{"nickname":"NoLogFreedom","fingerprint":"15703DE86CDA918A7C46D69FD031F0D60E40B0A5","flags":["Fast","Guard","Running","Unnamed","Valid"],"latitude":32.6333,"longitude":-16.9},
{"nickname":"default","fingerprint":"2750AC0A6A9896135EC0D63245908B785AE5C760","flags":["Fast","Running","V2Dir","Valid"],"latitude":47.95,"longitude":11.4333},
{"nickname":"Unnamed","fingerprint":"543363A9238673DFE92544E18EF426D6A48B75B2","flags":["Fast","Guard","Running","Stable","V2Dir","Valid"],"latitude":47.0,"longitude":8.0},
{"nickname":"h0h0h0h0","fingerprint":"69EB42AB666CADD0899CA8F714534C8FBE094ECE","flags":["Fast","Guard","HSDir","Named","Running","Stable","V2Dir","Valid"],"latitude":27.9987,"longitude":-82.5156},
{"nickname":"Zwiebelschale2","fingerprint":"27057971CB2E22C95F32A7ADC6AD02DCE2BBD303","flags":["Fast","Guard","HSDir","Named","Running","Stable","V2Dir","Valid"],"latitude":48.86,"longitude":2.35},
{"nickname":"kejbettur","fingerprint":"3AF36707E539F763A0607A86A0BB7C588F226786","flags":["Fast","Named","Running","Valid"],"latitude":49.2358,"longitude":-122.8693},
{"nickname":"123456Unnamed","fingerprint":"F45EA6627C852FD0548F321E791B370D2C40B4B3","flags":["Fast","Named","Running","V2Dir","Valid"],"latitude":58.0446,"longitude":38.8426},
{"nickname":"NLTorThanksSnowden","fingerprint":"F1FEDD444C6443526D318B4730BF649F97A2A6E7","flags":["Exit","Fast","Guard","Named","Running","Stable","Valid"],"latitude":52.5,"longitude":5.75},
{"nickname":"Unnamed","fingerprint":"01E1780C5C8616242942051F71E8BA57E4590E56","flags":["Fast","Running","Stable","Valid"],"latitude":41.6929,"longitude":-111.8147},
{"nickname":"freedomdemocracy","fingerprint":"94EA8E79BA08F1E776D1F28DF3143D4995F14722","flags":["Fast","HSDir","Named","Running","V2Dir","Valid"],"latitude":51.4501,"longitude":-0.1794},
{"nickname":"default","fingerprint":"4852A56537DB37529AE9BB627868EAC1B28F5D87","flags":["Fast","Running","V2Dir","Valid"],"latitude":38.0,"longitude":-97.0},
{"nickname":"fsingtor","fingerprint":"92179BBC8F8265851E5EB0C8D7EE79A5FF572CFC","flags":["Fast","HSDir","Running","Stable","Unnamed","V2Dir","Valid"],"latitude":51.0,"longitude":9.0},
{"nickname":"NotAnExitNode","fingerprint":"F7AD3FD8941DDCCC2120E2E4DCE3727C330C9805","flags":["Fast","Running","Valid"],"latitude":34.0039,"longitude":-118.4338},
{"nickname":"glifinmalhota","fingerprint":"8F14B3EB54EB508681691613A97CECE45BB1EA16","flags":["Fast","Guard","HSDir","Named","Running","Stable","V2Dir","Valid"],"latitude":49.75,"longitude":15.5},
{"nickname":"BzVFrPiratenpartei","fingerprint":"6710BF72AB9D953E559EB95F890EEBE14AAE1325","flags":["Running","Valid"],"latitude":51.0,"longitude":9.0},
{"nickname":"Asdfernfksu","fingerprint":"8EA529DD7D95B70581333043C1803F0D6F1CED5B","flags":["Fast","Guard","HSDir","Running","Stable","V2Dir","Valid"],"latitude":48.86,"longitude":2.35},
{"nickname":"joqurt03","fingerprint":"0B36C40D425F5F81580391B989808E19A0E28583","flags":["Fast","HSDir","Named","Running","Stable","V2Dir","Valid"],"latitude":48.5333,"longitude":12.15},
{"nickname":"wjbrelay","fingerprint":"113BC2902FA64BF4AE591371EC378FD818C82EC6","flags":["Fast","Guard","HSDir","Named","Running","Stable","V2Dir","Valid"],"latitude":39.4899,"longitude":-74.4773},
{"nickname":"Unnamed","fingerprint":"F55A0F519FDA1BF4D358A92C94FC04376F625DEF","flags":["Fast","Running","Stable","Valid"],"latitude":62.0,"longitude":10.0},
{"nickname":"ziusudra","fingerprint":"BCC4732E2248AA895EE637FD7A37252CDCEF7625","flags":["Exit","Fast","HSDir","Named","Running","Stable","V2Dir","Valid"],"latitude":39.0716,"longitude":-94.6289},
{"nickname":"00aaa394","fingerprint":"C35957773C93107BECC5F7896E227426DBE18859","flags":["Named","Running","V2Dir","Valid"],"latitude":32.9478,"longitude":-96.8915},
{"nickname":"Chandler07","fingerprint":"E5A21C42B0FDB88E1A744D9A0388EFB2A7A598CF","flags":["Exit","Fast","Guard","HSDir","Named","Running","Stable","V2Dir","Valid"],"latitude":52.5,"longitude":5.75},
{"nickname":"StairNetTor","fingerprint":"B5B60ECD63D1BD0E767AD6CEB0BCA029DDE14472","flags":["Fast","Guard","Named","Running","Stable","Valid"],"latitude":57.7167,"longitude":11.9667},
{"nickname":"Unnamed","fingerprint":"8EECC6B85DF28F9A386EC819CB65D4E29BECDF88","flags":["Fast","Running","V2Dir","Valid"],"latitude":-37.7667,"longitude":144.9667},
{"nickname":"WilliamIT4","fingerprint":"D73D22FDD449BD1F8429E86BA260214DCB9655F1","flags":["Fast","Guard","HSDir","Named","Running","Stable","V2Dir","Valid"],"latitude":45.85,"longitude":11.0},
{"nickname":"Arkania","fingerprint":"6F6D93C8ADD17FBD2BE0977AB6EA8A23CAACE14F","flags":["Fast","Running","V2Dir","Valid"],"latitude":51.0,"longitude":9.0},
{"nickname":"XOXXOX","fingerprint":"880EA01C702B372843A309AAE71BCBE36213C9CA","flags":["Fast","Running","Stable","Unnamed","V2Dir","Valid"],"latitude":39.4899,"longitude":-74.4773},
{"nickname":"nc23krypton","fingerprint":"4DE60B03BCF4C5DA6C26E7697F219ED086FA14D5","flags":["Fast","HSDir","Running","V2Dir","Valid"],"latitude":52.35,"longitude":4.9167},
{"nickname":"Infophreak","fingerprint":"1AA94CA797F722E79FA1724BF3C8CA5D79BC2927","flags":["Fast","Named","Running","V2Dir","Valid"],"latitude":44.9518,"longitude":-93.4339},
{"nickname":"InternetGloryHole","fingerprint":"47E5F2A3E24D440668B0087FAAED8E38840F7D38","flags":["Fast","Guard","HSDir","Named","Running","Stable","V2Dir","Valid"],"latitude":39.1472,"longitude":-94.5735},
{"nickname":"WeWereAllBornFree","fingerprint":"6D57D39F2EC371B487D304D7335F281C2ED07CF5","flags":["Fast","HSDir","Named","Running","Stable","V2Dir","Valid"],"latitude":53.4211,"longitude":-2.7129},
{"nickname":"thys1rpi","fingerprint":"221B393CABAD873E477904B13BA685BC74CC46D9","flags":["Fast","Named","Running","Stable","Valid"],"latitude":52.5,"longitude":5.75},
{"nickname":"Unnamed","fingerprint":"49273CB866E7AD19E0ACADE7B5E5C9C87D69B040","flags":["HSDir","Running","Stable","V2Dir","Valid"],"latitude":35.9767,"longitude":-78.5544},
{"nickname":"Dagobah","fingerprint":"54C75D4D943C3558BAB680307C23DCCC31ABA1BB","flags":["Fast","Running","Stable","Valid"],"latitude":58.9667,"longitude":5.75},
{"nickname":"Xellos","fingerprint":"E6172A7E366D8155449D34A6B2DC93F226B868A1","flags":["Running","Valid"],"latitude":52.5167,"longitude":13.4},
{"nickname":"Zarom","fingerprint":"C37F7F2A7E3D11B894F12D10AEF8C26A1E8F3ED5","flags":["Fast","Guard","HSDir","Named","Running","Stable","V2Dir","Valid"],"latitude":55.7522,"longitude":37.6156},
{"nickname":"default","fingerprint":"2504D33ABAC746D685303313C686A4514E600A5D","flags":["Exit","Running","V2Dir","Valid"],"latitude":32.0,"longitude":-5.0},
{"nickname":"WohnheimE","fingerprint":"341AFF28C1453FEAE6E5B6B42B11CBF6C5CF0960","flags":["Fast","Guard","HSDir","Running","Stable","Unnamed","V2Dir","Valid"],"latitude":49.2333,"longitude":7.0},
{"nickname":"FuckTheNSA","fingerprint":"1AD83770E65DDE6C1A37BA1A62300C8B8E735EB5","flags":["HSDir","Running","Stable","Unnamed","V2Dir","Valid"],"latitude":52.5,"longitude":5.75},
{"nickname":"GonzoIII","fingerprint":"89E25E4A82E63CD57B97C0DA87A9D9C44EBC1C48","flags":["Fast","Named","Running","V2Dir","Valid"],"latitude":50.7333,"longitude":-1.7667},
{"nickname":"germanNode","fingerprint":"54E5DA786D31213C5AE231F58FAB79E758B30B6B","flags":["Fast","Running","V2Dir","Valid"],"latitude":51.0,"longitude":9.0},
{"nickname":"pochemuchka4ever","fingerprint":"4B52F9881A123DA8C15F70236547DC3997F40D9D","flags":["Fast","HSDir","Running","V2Dir","Valid"],"latitude":40.6766,"longitude":-74.4202},
{"nickname":"SnorgaLilly","fingerprint":"AEFF5A61B25E9BA795CECF8F3B3D2577231626A2","flags":["Fast","HSDir","Named","Running","V2Dir","Valid"],"latitude":34.966,"longitude":-81.0807},
{"nickname":"Vigialia","fingerprint":"6CA3AC8E0F6355F6F1B1FD3A6E633CFD538F7264","flags":["Fast","HSDir","Named","Running","Stable","V2Dir","Valid"],"latitude":47.3999,"longitude":8.5474},
{"nickname":"chokaichokai","fingerprint":"A18563D0CE48696F20022A2552229D2062E1E036","flags":["Fast","HSDir","Named","Running","Stable","V2Dir","Valid"],"latitude":35.7167,"longitude":140.65},
{"nickname":"Unnamed","fingerprint":"AFBF8458A78C12C63250B748B568CC5138EDD269","flags":["Fast","Running","V2Dir","Valid"],"latitude":39.4543,"longitude":-74.7321},
{"nickname":"DigitalRhapsody","fingerprint":"B5CF2D7A100C75444756D888137AF2C232736037","flags":["Fast","Guard","HSDir","Named","Running","Stable","V2Dir","Valid"],"latitude":34.0438,"longitude":-118.2512},
{"nickname":"BlueRainAcidSky","fingerprint":"951C8DBC44B6ABE82597D93F2651D4D7C12A9317","flags":["Fast","Guard","HSDir","Named","Running","Stable","V2Dir","Valid"],"latitude":35.685,"longitude":139.7514},
{"nickname":"default","fingerprint":"91205FD4ED8B6EDD8F8BC44666C6F6593D89E897","flags":["Running","V2Dir","Valid"],"latitude":51.3329,"longitude":12.4047},
{"nickname":"omnitux","fingerprint":"5822048FB838F441B20FCEFD6396A48D23B87DA0","flags":["Fast","Running","V2Dir","Valid"],"latitude":50.7318,"longitude":6.2104},
{"nickname":"onion8fa5c0","fingerprint":"2CAC786DC5A89A93B323EEFE689C42F80EB18686","flags":["Fast","Named","Running","Stable","Valid"],"latitude":48.3333,"longitude":13.7833},
{"nickname":"TerraNullius","fingerprint":"69769F2DB3E353AC874643B99EFAD1D28797E3FB","flags":["Fast","HSDir","Named","Running","Stable","V2Dir","Valid"],"latitude":-37.8139,"longitude":144.9634},
{"nickname":"default","fingerprint":"ED55E51F310B7B80028BD69E05149A1AFC9AF675","flags":["Running","V2Dir","Valid"],"latitude":51.3167,"longitude":6.9667},
{"nickname":"RSTNgummibaer","fingerprint":"84D80908127B8B0BC786C198D7C6974405ED7F75","flags":["Fast","Guard","Named","Running","Stable","Valid"],"latitude":52.5,"longitude":5.75},
{"nickname":"Unnamed","fingerprint":"A9185BA58701CAAE76BD160B81F696A747C55D66","flags":["Fast","Running","Stable","Valid"],"latitude":49.2814,"longitude":16.5648},
{"nickname":"greendale","fingerprint":"B6D30CEC9F8FAB676CCD0634DC86412F1BA8F4D2","flags":["Fast","Guard","HSDir","Named","Running","Stable","V2Dir","Valid"],"latitude":52.35,"longitude":4.9167},
{"nickname":"EinBettBeiAmazonEU","fingerprint":"30E893E848FE09247BF2173837E85158429C5E1C","flags":["Running","Valid"],"latitude":53.0,"longitude":-8.0},
{"nickname":"torpidsUAitlas","fingerprint":"A37C47B03FF31CA6937D3D68366B157997FE7BCD","flags":["Fast","Guard","HSDir","Named","Running","Stable","V2Dir","Valid"],"latitude":49.0,"longitude":32.0},
{"nickname":"jehova","fingerprint":"295FD821C5C447AAA1D418BB2AB24FBB4069333C","flags":["Fast","Named","Running","Valid"],"latitude":49.4478,"longitude":11.0683},
{"nickname":"4ndurilsNode","fingerprint":"F531D3F8CE4695FACAD4E883F0507C6ED1F05BA9","flags":["Fast","Guard","Running","Stable","Unnamed","Valid"],"latitude":51.0,"longitude":9.0},
{"nickname":"MFForA","fingerprint":"8C5C2B7315814C3FF579A5784EDCE9D4446832B7","flags":["Running","V2Dir","Valid"],"latitude":52.5931,"longitude":19.0894},
{"nickname":"tnyskpnktor00","fingerprint":"5844151452A5EA129A9ED5B86B3A6AD83C08FDC3","flags":["Fast","Guard","HSDir","Named","Running","Stable","V2Dir","Valid"],"latitude":40.7267,"longitude":-73.9981},
{"nickname":"default","fingerprint":"A1CE30589CB4018CA4AAF861049C7FD63BDDF6D2","flags":["Running","Valid"],"latitude":60.0,"longitude":100.0},
{"nickname":"Mercury","fingerprint":"12EB31E8E6566023A254DD4B74DB3D6D24604C75","flags":["Exit","Fast","Guard","HSDir","Running","Stable","Unnamed","V2Dir","Valid"],"latitude":38.0,"longitude":-97.0},
{"nickname":"Unnamed","fingerprint":"4CBB4D16879421A7F959F5BA566010AF0317CE99","flags":["Fast","Running","V2Dir","Valid"],"latitude":33.9473,"longitude":-117.7289},
{"nickname":"Eigentor","fingerprint":"659F7BB7799A0535C4F4328324F55F3D6B0D602C","flags":["Exit","Fast","Running","Stable","Unnamed","Valid"],"latitude":51.0,"longitude":9.0},
{"nickname":"Unstable8to16hUTC1","fingerprint":"092960FB1439AED3AF6EEF455EB5A98403B715FF","flags":["Running","V2Dir","Valid"],"latitude":49.2075,"longitude":8.1133},
{"nickname":"default","fingerprint":"463B90D6672141AE6114EB6C7A7472215B8169CF","flags":["Running","V2Dir","Valid"],"latitude":19.43,"longitude":-99.13},
{"nickname":"Greylay","fingerprint":"4023267DB0A1C2AAE89F92DDC1A6034034CA50AF","flags":["Fast","Named","Running","V2Dir","Valid"],"latitude":46.1334,"longitude":-60.1947},
{"nickname":"ephemer3","fingerprint":"47F9F5F1611449A867167EEDF8EE4A63ABAAF5B2","flags":["Fast","HSDir","Running","Stable","Unnamed","V2Dir","Valid"],"latitude":52.2,"longitude":0.1167},
{"nickname":"default","fingerprint":"911B9D9493C71584592B44591A5FDCF3F2634D7A","flags":["Fast","Running","V2Dir","Valid"],"latitude":55.0031,"longitude":-1.6522},
{"nickname":"Unnamed","fingerprint":"709298254D7EC6058E78838A3FD11AF3444FC936","flags":["Fast","Running","Valid"],"latitude":29.4889,"longitude":-98.3987},
{"nickname":"TorVXNDbhs0","fingerprint":"A3407CC403CF39DFA40ED9E1D14A8B54431F6104","flags":["Fast","Guard","Named","Running","Stable","Valid"],"latitude":45.5078,"longitude":-73.5804},
{"nickname":"helldog","fingerprint":"4DBA1903EDE57805EDCE999B8D56F4012CEDE681","flags":["Fast","Guard","Named","Running","Stable","Valid"],"latitude":47.0,"longitude":20.0},
{"nickname":"CPUTerminator2","fingerprint":"EB66397AD8B755620D3FAF4A937859E2523F5812","flags":["Exit","Fast","HSDir","Named","Running","V2Dir","Valid"],"latitude":23.5,"longitude":121.0},
{"nickname":"saippuakauppias","fingerprint":"8A4A943266D52D0DB93163EC7D9637BDA2BA6FE6","flags":["Named","Running","Stable","Valid"],"latitude":60.1756,"longitude":24.9342},
{"nickname":"default","fingerprint":"804C9170D13CDD2417C46F208010BD04F266DB51","flags":["Running","V2Dir","Valid"],"latitude":49.7728,"longitude":6.6645},
{"nickname":"default","fingerprint":"33E32B4B13BA9213EB0F85D453C37DC720CBEBFA","flags":["Fast","Running","V2Dir","Valid"],"latitude":46.7333,"longitude":15.4667},
{"nickname":"RavensGate4","fingerprint":"C8DDC5C6C3E1AE9577B6E316101B737DA15142E7","flags":["Named","Running","V2Dir","Valid"],"latitude":46.1665,"longitude":6.1854},
{"nickname":"qEnQACRoMU","fingerprint":"1B67290E557E81438DCFF776C7B3A87163059BE9","flags":["Named","Running","V2Dir","Valid"],"latitude":45.7788,"longitude":-119.529},
{"nickname":"asterix","fingerprint":"11BC60166CE354963FAD0A527EFCB0BA6A777A60","flags":["Exit","Fast","HSDir","Named","Running","Stable","V2Dir","Valid"],"latitude":51.5,"longitude":-0.13},
{"nickname":"default","fingerprint":"1EABD5971C607A13E89EC47428716B5391E0CB70","flags":["Running","V2Dir","Valid"],"latitude":51.0645,"longitude":6.9592},
{"nickname":"keenbock","fingerprint":"D126F5C159203F1D808694E2A64B5B02045AB521","flags":["Fast","Running","V2Dir","Valid"],"latitude":50.05,"longitude":9.5167},
{"nickname":"Unnamed","fingerprint":"A9E5B98C1966040E44E77179FE900D84565B40E0","flags":["Running","Stable","Valid"],"latitude":38.4906,"longitude":-84.8466},
{"nickname":"SwissGeeks04","fingerprint":"64A1F18C6CA5492DA0BFF9C84001A487AF1D114F","flags":["Fast","HSDir","Named","Running","Stable","V2Dir","Valid"],"latitude":47.705,"longitude":8.4784},
{"nickname":"jrwjtry","fingerprint":"A071755BB0DCDB9B247098AD78082BF717AC9456","flags":["Fast","Named","Running","V2Dir","Valid"],"latitude":53.4559,"longitude":35.188},
{"nickname":"brooklynrelay","fingerprint":"A3E1BA860B91C50C6E827A7735C10FFF0E6E8807","flags":["Fast","HSDir","Running","Stable","V2Dir","Valid"],"latitude":40.676,"longitude":-73.9629},
{"nickname":"idideditheconfig","fingerprint":"B6A0AD7145E9F2C07129CDA5C21D8291C7410DD9","flags":["Exit","Fast","HSDir","Running","V2Dir","Valid"],"latitude":60.0,"longitude":100.0},
{"nickname":"efibi","fingerprint":"9972422A370B82C98BA44A428358B592E4AE3E65","flags":["Named","Running","Stable","Valid"],"latitude":48.8667,"longitude":2.3333},
{"nickname":"Unnamed","fingerprint":"09ED45C51339CC55C1FF54F73FB8D6012217E0C9","flags":["Exit","Fast","Running","Stable","Valid"],"latitude":45.5078,"longitude":-73.5804},
{"nickname":"Unnamed","fingerprint":"F22C1FA6BACFE57928EB08FC3A086B59B77F8052","flags":["Exit","Fast","Running","V2Dir","Valid"],"latitude":54.2021,"longitude":37.6443},
{"nickname":"Sobe42","fingerprint":"06F4E50B8C616080330642860C7B7C8FDFCE89AF","flags":["Fast","Guard","HSDir","Running","Stable","Unnamed","V2Dir","Valid"],"latitude":48.86,"longitude":2.35},
{"nickname":"Unnamed","fingerprint":"35C2B180E8CEFD92693854FED9957E67838EBD2D","flags":["Fast","Running","Stable","Valid"],"latitude":57.7167,"longitude":11.9667},
{"nickname":"hacktheplanet3","fingerprint":"6C7B739CCF5D560449276A3A4D60DCC3549D6EC9","flags":["HSDir","Named","Running","Stable","V2Dir","Valid"],"latitude":44.8186,"longitude":20.4681},
{"nickname":"abuseboule","fingerprint":"7621243BFE1FD433A1CA3B5BD95AB71712373B9A","flags":["Fast","HSDir","Running","Stable","V2Dir","Valid"],"latitude":48.86,"longitude":2.35},
{"nickname":"FightForPrivacy1","fingerprint":"458928DC8043DD950E4267624031712BAD6491B8","flags":["Fast","Named","Running","V2Dir","Valid"],"latitude":49.7114,"longitude":9.1792},
{"nickname":"default","fingerprint":"0FA47BC86A751C3A18EE75678EE252EDDD016CA8","flags":["Fast","Running","V2Dir","Valid"],"latitude":52.0833,"longitude":4.3},
{"nickname":"freespeech4thedumb3","fingerprint":"06923B596647244629FE3447C8E4795BFC6AAB3D","flags":["Fast","Guard","HSDir","Named","Running","Stable","V2Dir","Valid"],"latitude":51.0,"longitude":9.0},
{"nickname":"BonAqua","fingerprint":"CBF8572C4530EFDB02CD9E6CA9A8719E6AD26009","flags":["Fast","HSDir","Named","Running","Stable","V2Dir","Valid"],"latitude":35.8669,"longitude":-87.3081},
{"nickname":"default","fingerprint":"77CF87ACFB6686234B1B9AA1B30DE78EDBC6A954","flags":["HSDir","Running","V2Dir","Valid"],"latitude":40.0,"longitude":-4.0},
{"nickname":"aretidusTor","fingerprint":"8CEC65BE8360BE3838D87AC94D102F06B5C63DA8","flags":["Running","V2Dir","Valid"],"latitude":53.0938,"longitude":8.783},
{"nickname":"spongeborns2","fingerprint":"506947FFF04021A33408E7538639BF9A27D05024","flags":["Fast","HSDir","Running","V2Dir","Valid"],"latitude":51.0,"longitude":9.0},
{"nickname":"TrojanEel","fingerprint":"7579733B277EC492F6E693A3D532A4F1B3CEF4FC","flags":["Fast","Named","Running","V2Dir","Valid"],"latitude":52.5,"longitude":5.75},
{"nickname":"default","fingerprint":"3E78E5CE0950B8CF205708B06630B9FE2359E169","flags":["Fast","Running","V2Dir","Valid"],"latitude":60.0,"longitude":100.0},
{"nickname":"ambivalence","fingerprint":"DA8953190C6DC544C2FA231E913E151102F7DB40","flags":["Exit","Fast","Named","Running","Valid"],"latitude":51.5,"longitude":-0.13},
{"nickname":"conformal02","fingerprint":"54EED9E2A550E33948663F212E99556DE43B33E4","flags":["Exit","Fast","Guard","Named","Running","Stable","Valid"],"latitude":38.0,"longitude":-97.0},
{"nickname":"PoopJack","fingerprint":"C8818A9CBC9CAA96DC65C6E15E333E4679549A64","flags":["Exit","Named","Running","Valid"],"latitude":30.4549,"longitude":-97.7565},
{"nickname":"tsubasacat","fingerprint":"E6366BB844BDA8D5A2A475655919A46956DA7B5F","flags":["Fast","Guard","Named","Running","Stable","Valid"],"latitude":51.0,"longitude":9.0},
{"nickname":"igololly","fingerprint":"2694891DD10BC5A634D7676CAD14D713AA469B21","flags":["Exit","Fast","HSDir","Named","Running","V2Dir","Valid"],"latitude":37.4192,"longitude":-122.0574},
{"nickname":"Unnamed","fingerprint":"EFEEFE073FA3D4300C7C5CCF4A9CF915787A6B23","flags":["Fast","Guard","HSDir","Running","Stable","V2Dir","Valid"],"latitude":52.5,"longitude":5.75},
{"nickname":"PimpMyRide","fingerprint":"97491F3F06F7D896B00707C5835D29ABED1A62A4","flags":["Fast","Guard","HSDir","Named","Running","Stable","V2Dir","Valid"],"latitude":62.0,"longitude":15.0},
{"nickname":"tortemp23minus5eu","fingerprint":"C232376290F65B1E2952DED51CBED0AEC72E3A5C","flags":["Fast","Guard","Named","Running","Stable","Valid"],"latitude":51.0,"longitude":9.0},
{"nickname":"JustSomeRelay","fingerprint":"FACB4AA7601AABD8399B7B7DE3543712549F3659","flags":["HSDir","Running","Stable","Unnamed","V2Dir","Valid"],"latitude":38.6262,"longitude":-121.3248},
{"nickname":"taz","fingerprint":"35919E197C6C7F372A26C747D66ACA6A39642B3E","flags":["Fast","Guard","HSDir","Running","Stable","Unnamed","V2Dir","Valid"],"latitude":51.0,"longitude":9.0},
{"nickname":"ntmf7","fingerprint":"012204542F179FB8E8C7D2A98B6D8C328DDE16E8","flags":["Exit","Fast","Named","Running","V2Dir","Valid"],"latitude":39.0,"longitude":22.0},
{"nickname":"DicksAndCheese","fingerprint":"AE783ACE4A24AEE31E212BBABA02410FE6B1032D","flags":["Fast","Named","Running","Stable","Valid"],"latitude":39.0437,"longitude":-77.4875},
{"nickname":"zwupfslair","fingerprint":"8B97C50D43EAEA06C4C533709FB7CCFFFD22668A","flags":["Fast","HSDir","Named","Running","Stable","V2Dir","Valid"],"latitude":52.5167,"longitude":13.4},
{"nickname":"default","fingerprint":"015ED42759A8990B85B23CC9CA79C4E210E05AA1","flags":["Fast","Running","V2Dir","Valid"],"latitude":52.3667,"longitude":9.7167},
{"nickname":"lexXxel","fingerprint":"AB87BB2F5A2EC68E8F3E0DCB460469D1BE223856","flags":["Fast","Guard","HSDir","Named","Running","Stable","V2Dir","Valid"],"latitude":51.021,"longitude":11.0353},
{"nickname":"PinkiePie","fingerprint":"771AE4046794CD78498D5928668A28E454D0C16C","flags":["Fast","Running","Stable","Valid"],"latitude":55.7522,"longitude":37.6156},
{"nickname":"OnionRunners","fingerprint":"661C172F2FC74436434F06B23F8F285D09661BCE","flags":["Named","Running","V2Dir","Valid"],"latitude":51.5,"longitude":-0.13},
{"nickname":"Cthulhu","fingerprint":"B721D56F47F66C3E1B1F69D9D8E8578BCDED5143","flags":["Fast","Guard","HSDir","Named","Running","Stable","V2Dir","Valid"],"latitude":52.35,"longitude":4.9167},
{"nickname":"linglom","fingerprint":"ED523A4DC73D5939CBC2B48AF25392A694CDEA6B","flags":["Fast","HSDir","Named","Running","Stable","V2Dir","Valid"],"latitude":25.0392,"longitude":121.525},
{"nickname":"Unnamed","fingerprint":"FADD1E620505CD8B1E22DC9CC503D06592C24EF9","flags":["Running","V2Dir","Valid"],"latitude":42.8333,"longitude":12.8333},
{"nickname":"usschnudel","fingerprint":"83F959F29268410734AB996EB82176BDA9A605E1","flags":["Fast","Guard","HSDir","Named","Running","Stable","V2Dir","Valid"],"latitude":34.4065,"longitude":-118.4015},
{"nickname":"txtfilehomeTorNode","fingerprint":"8FA51426A6150E4EBF8949DBA1AC84A0DC836BCF","flags":["Exit","Running","V2Dir","Valid"],"latitude":50.827,"longitude":12.9043},
{"nickname":"rfc822","fingerprint":"ED4A11D3F618FE30D81A2E0A642B3E991D12D61D","flags":["Fast","Guard","Named","Running","Stable","Valid"],"latitude":51.0,"longitude":9.0},
{"nickname":"SeAjkGyfR","fingerprint":"4CC367173FF88E58FBADC6305CA493C0C72248AA","flags":["Fast","Guard","Named","Running","Stable","Valid"],"latitude":62.0,"longitude":15.0},
{"nickname":"default","fingerprint":"57FC037A337DED6888C89EC1565341223B980B02","flags":["Fast","Running","V2Dir","Valid"],"latitude":53.6,"longitude":10.6333},
{"nickname":"TorRelay468","fingerprint":"C35CDC1B2284626440E3BFC2A14B7AE8042A1F31","flags":["Fast","Guard","Running","Stable","Unnamed","Valid"],"latitude":41.3917,"longitude":-81.6417},
{"nickname":"default","fingerprint":"6CE7FCC8832E4AB1B94EFB4E56DDEC2D91122896","flags":["Fast","HSDir","Running","Stable","V2Dir","Valid"],"latitude":37.3697,"longitude":-122.0214},
{"nickname":"freesyria","fingerprint":"2451FCC28D2DDFE7EA93C0F9F9576D63B69394EA","flags":["Fast","Guard","Named","Running","Stable","Valid"],"latitude":40.4169,"longitude":-74.2579},
{"nickname":"Stratum0","fingerprint":"5FEDF90791C4BB738101751E10E959ED7B39F7B6","flags":["Fast","Named","Running","V2Dir","Valid"],"latitude":52.1661,"longitude":10.5514},
{"nickname":"default","fingerprint":"6269A72A9E67B423D08A73D823EECB4152FC026F","flags":["Running","V2Dir","Valid"],"latitude":51.45,"longitude":8.85},
{"nickname":"default","fingerprint":"BFEB98950EE2D9A88DF2D20A971DC0A8244ECB10","flags":["Exit","Fast","Running","V2Dir","Valid"],"latitude":-3.3167,"longitude":-41.4167},
{"nickname":"default","fingerprint":"34C299B92A3FF75B1BAD244DBA582713DEDE1C44","flags":["Fast","Running","V2Dir","Valid"],"latitude":34.6864,"longitude":135.52},
{"nickname":"hviv1021","fingerprint":"DB90C8891D49893E50F61DE92231E799024B2882","flags":["Exit","Fast","Guard","Running","Stable","Unnamed","Valid"],"latitude":47.0056,"longitude":28.8575},
{"nickname":"devnull","fingerprint":"D7885F4A6509D3E30C6E4300677C52171C6FF0BC","flags":["Exit","Fast","Guard","HSDir","Named","Running","Stable","V2Dir","Valid"],"latitude":48.86,"longitude":2.35},
{"nickname":"Unnamed","fingerprint":"46D237AE1B0816FAE0794CD7F80258071A244959","flags":["Fast","Running","Stable","Valid"],"latitude":47.0,"longitude":20.0},
{"nickname":"default","fingerprint":"07EFCFF1D1EBE729B36CED9CB9FA6D933AA81893","flags":["Running","V2Dir","Valid"],"latitude":50.9333,"longitude":6.95},
{"nickname":"Ramsgate","fingerprint":"896FCE19CB53A73A21DC874977C06B28FC9A8BBA","flags":["Fast","Guard","HSDir","Named","Running","Stable","V2Dir","Valid"],"latitude":38.9085,"longitude":-77.0177},
{"nickname":"Tukaie","fingerprint":"006201ECDB54BBCE59F9FB647D04B3430DF69096","flags":["Fast","Named","Running","Stable","Valid"],"latitude":52.35,"longitude":4.9167},
{"nickname":"default","fingerprint":"C45F2CBE40C814934FF4BF807C9FB22513802F07","flags":["Running","V2Dir","Valid"],"latitude":51.6212,"longitude":7.6309},
{"nickname":"digineo4","fingerprint":"C0A05D6DC0987D0BF32F0FF00A9BF791E7CA79D7","flags":["Fast","Guard","Running","Stable","Unnamed","Valid"],"latitude":51.0,"longitude":9.0},
{"nickname":"default","fingerprint":"AB5478D7CF9AC466018A948FF696191941FB24A8","flags":["Fast","HSDir","Running","V2Dir","Valid"],"latitude":45.55,"longitude":8.8833},
{"nickname":"default","fingerprint":"5DC4618C86C0D54E226DDED5ABCCFBA41B9AD778","flags":["Fast","Running","V2Dir","Valid"],"latitude":56.6369,"longitude":47.8711},
{"nickname":"wetworks","fingerprint":"677D433B52DA358B8DA944B3A6CBE891ABFEE4F6","flags":["Fast","Guard","HSDir","Named","Running","Stable","V2Dir","Valid"],"latitude":38.0,"longitude":-97.0},
{"nickname":"default","fingerprint":"9B55F4D15042DB807F96639F6A03554C493894FB","flags":["Fast","Running","V2Dir","Valid"],"latitude":42.3366,"longitude":-71.0726},
{"nickname":"PoopyTheChinchilla","fingerprint":"AC277371E8E244B8DE5CC25547BDD95BC6EBBCE4","flags":["Fast","Named","Running","Stable","Valid"],"latitude":55.7,"longitude":13.1833},
{"nickname":"default","fingerprint":"48BEE8654CD03FD12642FCE32719691A07968B02","flags":["Running","V2Dir","Valid"],"latitude":47.3293,"longitude":-122.5801},
{"nickname":"Unnamedygy","fingerprint":"EB72854D68EDC2CB44EFCA8B5CD8CAB1AC38C81D","flags":["HSDir","Named","Running","V2Dir","Valid"],"latitude":54.8337,"longitude":37.6114},
{"nickname":"jakeholt","fingerprint":"B352D9D1736B48129D9892F227CD620EF6625D72","flags":["Fast","Named","Running","V2Dir","Valid"],"latitude":27.8386,"longitude":-82.7166},
{"nickname":"ididnteditheconfig","fingerprint":"0F3D6542C7A42AE7788B70B089ABCDDAA9D9323B","flags":["Running","Valid"],"latitude":60.0,"longitude":100.0},
{"nickname":"default","fingerprint":"46F1748CFCA42557A0160F8E0BEE26268DE75F5E","flags":["HSDir","Running","V2Dir","Valid"],"latitude":43.8,"longitude":-79.4167},
{"nickname":"gracefoster","fingerprint":"FC65934A983FC6A09DFBB4DA7A3651CE7D00F032","flags":["HSDir","Named","Running","V2Dir","Valid"],"latitude":36.1059,"longitude":-79.8165},
{"nickname":"OrbotRelay","fingerprint":"68B8E5AE8B58DFF8364A51EFEA26327AF1509731","flags":["Running","Valid"],"latitude":-16.5,"longitude":-68.15},
{"nickname":"1exit","fingerprint":"C48EC25073C290F4A1612469E679DF47476B6FE0","flags":["Exit","Fast","HSDir","Running","Stable","V2Dir","Valid"],"latitude":52.5,"longitude":5.75},
{"nickname":"NSDInfoGuard","fingerprint":"E060CE1B9EFC5B53DE0E07F20D93EED2838A2773","flags":["Fast","Guard","Named","Running","Stable","Valid"],"latitude":37.496,"longitude":-77.4712},
{"nickname":"Rumdumdum55903","fingerprint":"C88CD817C7EF12AC4F16920429A6904617D5D880","flags":["Exit","Fast","Named","Running","V2Dir","Valid"],"latitude":55.7522,"longitude":37.6156},
{"nickname":"sakartunode","fingerprint":"3231042A1998F456F323D9A3F5FB382BA75D0458","flags":["Exit","Fast","Running","Valid"],"latitude":51.0,"longitude":9.0},
{"nickname":"default","fingerprint":"1BA054A923E442A899F77150F33E214028F00AC3","flags":["Exit","Fast","Running","V2Dir","Valid"],"latitude":51.1,"longitude":17.0333},
{"nickname":"nosurveillance","fingerprint":"7C3AE76BB9E9E6E4F2AE9270FD824DF54A944127","flags":["Exit","Fast","Guard","HSDir","Running","Stable","V2Dir","Valid"],"latitude":51.0,"longitude":9.0},
{"nickname":"mykod","fingerprint":"E99210155BCA2166BFDB9150A1F03232574DA09B","flags":["Fast","HSDir","Named","Running","V2Dir","Valid"],"latitude":50.8333,"longitude":4.0},
{"nickname":"Chandler22","fingerprint":"575B40EF095A0F2B13C83F8485AFC56453817ABF","flags":["Exit","Fast","Guard","HSDir","Running","Stable","V2Dir","Valid"],"latitude":52.5,"longitude":5.75},
{"nickname":"Unnamed","fingerprint":"8C4514F5A12A2C3C87DA2E814EB065B34E853277","flags":["Fast","Running","Valid"],"latitude":53.55,"longitude":10.0},
{"nickname":"GeorgeIV","fingerprint":"1A3B88D2598F4946C8E3EFFAF40FA2394184A23E","flags":["Fast","HSDir","Named","Running","V2Dir","Valid"],"latitude":59.8944,"longitude":30.2642},
{"nickname":"animalz","fingerprint":"675B9F3EA531DC01AD0F793858BC5DCB23A61BA3","flags":["Fast","HSDir","Running","Stable","Unnamed","V2Dir","Valid"],"latitude":46.4403,"longitude":6.248},
{"nickname":"myTorPy","fingerprint":"71D8E6ED36E9BFD59E9ECFEA716EFD2B8330BD6B","flags":["Fast","Running","V2Dir","Valid"],"latitude":50.9833,"longitude":11.0333},
{"nickname":"0PointerOrgTorRelay","fingerprint":"09ECFC7E28335A2EED950F4593D527AF03CFC7C2","flags":["Named","Running","Stable","Valid"],"latitude":51.0,"longitude":9.0},
{"nickname":"banananana","fingerprint":"BC28FF37682EDC7B6AE95ECE23FC3D0057CDD66D","flags":["Fast","Named","Running","Stable","Valid"],"latitude":51.0,"longitude":9.0},
{"nickname":"Unnamed","fingerprint":"76EDD6BDC72AD1B49C3349B2FED1ECC9E60C5740","flags":["Running","V2Dir","Valid"],"latitude":60.0,"longitude":100.0},
{"nickname":"Samo2","fingerprint":"18AC299420E36DC0C6C8E3CA6D8E0C9B1A38B932","flags":["Exit","Fast","Guard","HSDir","Running","Stable","Unnamed","V2Dir","Valid"],"latitude":48.6667,"longitude":19.5},
{"nickname":"AllHailLiddy","fingerprint":"777A0372366DD430E2BF9089AB6DC0F50B8EEE31","flags":["Exit","Fast","Guard","HSDir","Running","Stable","Unnamed","V2Dir","Valid"],"latitude":45.5902,"longitude":-73.5559},
{"nickname":"innocence","fingerprint":"997A910868C1798440705ADED7BE497FB1B3CCDA","flags":["Exit","Fast","Named","Running","Stable","Valid"],"latitude":46.0,"longitude":25.0},
{"nickname":"Unnamed","fingerprint":"5094E861D32BB66DA9EDC1C1AEA14994E9A58DC6","flags":["BadExit","Running","V2Dir","Valid"],"latitude":32.7026,"longitude":51.1537},
{"nickname":"0xbirkoss","fingerprint":"9A1F0EC6569AD8C3EEB27C22F0062BEBD5F7F2F4","flags":["Fast","HSDir","Named","Running","Stable","V2Dir","Valid"],"latitude":45.4,"longitude":-71.9},
{"nickname":"bauruine204","fingerprint":"322C6E3A973BC10FC36DE3037AD27BC89F14723B","flags":["Fast","Guard","HSDir","Named","Running","Stable","V2Dir","Valid"],"latitude":48.86,"longitude":2.35},
{"nickname":"Benedict","fingerprint":"078355902CB9F8C4E4603E0EDC1A44E8B8858EED","flags":["Running","Stable","Unnamed","Valid"],"latitude":47.3333,"longitude":13.3333},
{"nickname":"dionisos","fingerprint":"A08B0F041474BC94806374EF0BABDD348EBF0003","flags":["Exit","Fast","Named","Running","Stable","Valid"],"latitude":42.9864,"longitude":-78.7279},
{"nickname":"afo81","fingerprint":"4C35B2B52F336971F09BE234549E01BC2725951F","flags":["Exit","Fast","Guard","Named","Running","Stable","Valid"],"latitude":51.0,"longitude":9.0},
{"nickname":"default","fingerprint":"68AF93FEA5ABD3815B1654567325B916E809F1D4","flags":["Running","V2Dir","Valid"],"latitude":41.9,"longitude":12.4833},
{"nickname":"298443972","fingerprint":"0E5DAC90BB725FEF2F0E4B650DA1F642146B165B","flags":["Fast","Guard","HSDir","Running","Stable","Unnamed","V2Dir","Valid"],"latitude":47.1874,"longitude":7.7075},
{"nickname":"Snowdonia","fingerprint":"810DEC8D99B142D862CEE370894C0F2FE9AD8AFB","flags":["Fast","HSDir","Named","Running","V2Dir","Valid"],"latitude":53.25,"longitude":-1.9167},
{"nickname":"Toor197781","fingerprint":"3ECEC52F1801D2F10EFDCD6EF37F4567D76982CA","flags":["Named","Running","V2Dir","Valid"],"latitude":51.804,"longitude":10.9476},
{"nickname":"ZTor","fingerprint":"FC9E372D8FE9F7686962D94FE0CD584AED04D7F1","flags":["Named","Running","Stable","Valid"],"latitude":53.7337,"longitude":10.2592},
{"nickname":"Unnamed","fingerprint":"D59B680EA19EABBA3038456624E094B7D07A62E6","flags":["Fast","Guard","Running","Stable","Valid"],"latitude":64.0,"longitude":26.0},
{"nickname":"Unnamed","fingerprint":"9D40F2B1AA5AACD66E479668E26BB6C3AC1A63F3","flags":["Fast","Running","V2Dir","Valid"],"latitude":59.5,"longitude":18.05},
{"nickname":"GEO","fingerprint":"7E5F5B17CAA9BEF929F57D97EEFE305A2089E901","flags":["Exit","Fast","Guard","HSDir","Named","Running","Stable","V2Dir","Valid"],"latitude":39.9721,"longitude":-105.2493},
{"nickname":"hodor","fingerprint":"FF97E9118A5642207E5713410B26CF22099FB7C1","flags":["Exit","Fast","Guard","HSDir","Running","Stable","Unnamed","V2Dir","Valid"],"latitude":49.75,"longitude":15.5},
{"nickname":"hantwister0t5","fingerprint":"C44A9620F392D9F3753FB0755B427BE9D3E2A9C5","flags":["Fast","Running","Stable","Unnamed","V2Dir","Valid"],"latitude":42.9864,"longitude":-78.7279},
{"nickname":"WhiteNoise","fingerprint":"ACFF2D6F3FF312B6B6B7E7490CF9C1B71FE593DF","flags":["Fast","Running","Valid"],"latitude":46.3,"longitude":6.0833},
{"nickname":"DrastikRelay","fingerprint":"5B61269607B39F3D9B9B1D899C7580F0E4302D3A","flags":["Fast","Guard","HSDir","Running","Stable","V2Dir","Valid"],"latitude":52.5,"longitude":5.75},
{"nickname":"FeckTor1","fingerprint":"9078D4E795FD7016AD75CE5C9B0610A0484FE214","flags":["Named","Running","V2Dir","Valid"],"latitude":50.85,"longitude":-1.7833},
{"nickname":"Tor0exit0lite","fingerprint":"78713D9F719FCADE21001FB4FCC1DA50B40A0D0A","flags":["Exit","Fast","Guard","Named","Running","Stable","Valid"],"latitude":47.0,"longitude":20.0},
{"nickname":"RasPoRas","fingerprint":"67D71CFCCBFEF396828316718F2EBD932EF2E0A8","flags":["Named","Running","Valid"],"latitude":49.4805,"longitude":21.0209},
{"nickname":"project10FRonline4","fingerprint":"22F532605D922AF3B037B58660B16EA2EE1BDCBB","flags":["Fast","Guard","Named","Running","Stable","V2Dir","Valid"],"latitude":48.86,"longitude":2.35},
{"nickname":"modeerf","fingerprint":"C072B19DF186D54245233B922B9BD83D3BE67A9C","flags":["Fast","Named","Running","Valid"],"latitude":48.15,"longitude":11.5833},
{"nickname":"taz0","fingerprint":"759B3AF6EB47BAC9190D427C1E031BCCF940927C","flags":["Fast","Running","Valid"],"latitude":-10.0,"longitude":-55.0},
{"nickname":"TorProtcectsPrivacy","fingerprint":"A9629CB4CF53DB6BB53B3ACAB6E220F618704F02","flags":["HSDir","Named","Running","Stable","V2Dir","Valid"],"latitude":40.9317,"longitude":-73.1142},
{"nickname":"redder","fingerprint":"70024941CB48F419513AFC835378AF15FA5C39BD","flags":["Exit","Named","Running","Valid"],"latitude":60.0,"longitude":100.0},
{"nickname":"gratefulDos","fingerprint":"3B8C173F124E5A19F2DEE31B76FD3AD3C457515D","flags":["Fast","Named","Running","Stable","Valid"],"latitude":29.4889,"longitude":-98.3987},
{"nickname":"default","fingerprint":"2C57C85F9EB96EB2508150D440E033ABDA87BA4C","flags":["Running","V2Dir","Valid"],"latitude":51.0,"longitude":9.0},
{"nickname":"moldedchaff","fingerprint":"DB94CC804509A43C2BA265E5A4D6EC69DA4D4C63","flags":["Named","Running","Stable","Valid"],"latitude":41.8661,"longitude":-88.107},
{"nickname":"zter","fingerprint":"81E06DAAE3ECB1DD0FFB78EC8A5FE23AB4B13DDB","flags":["Exit","Fast","Running","Unnamed","V2Dir","Valid"],"latitude":56.3269,"longitude":44.0075},
{"nickname":"Unnamed","fingerprint":"011AA3BBF14A3190F96586E3C763716C405761EB","flags":["Running","Stable","Valid"],"latitude":48.86,"longitude":2.35},
{"nickname":"OnionPi","fingerprint":"43FB429CCEB778083B12BE75FCF921463AC4F205","flags":["Fast","HSDir","Running","Stable","V2Dir","Valid"],"latitude":39.5,"longitude":-8.0},
{"nickname":"tort","fingerprint":"89588670A13501D7BE05C32FA591CF29C8513934","flags":["Fast","Named","Running","V2Dir","Valid"],"latitude":60.0,"longitude":100.0},
{"nickname":"default","fingerprint":"02148DB2F4D7811339893EF2B211BD9404BE9251","flags":["Running","V2Dir","Valid"],"latitude":52.5167,"longitude":13.4},
{"nickname":"Unnamed","fingerprint":"05320AC2CFB6210AFC731CCC6D347639AA96BFB3","flags":["Running","V2Dir","Valid"],"latitude":59.8114,"longitude":10.7983},
{"nickname":"abbie","fingerprint":"AB217D85D0AC461E98E1270F5AE404E5FD8238C8","flags":["Exit","Fast","Guard","Running","Stable","Unnamed","Valid"],"latitude":52.5,"longitude":5.75},
{"nickname":"JPsi2","fingerprint":"F6EC46933CE8D4FAD5CCDAA8B1C5A377685FC521","flags":["Fast","Guard","HSDir","Running","Stable","Unnamed","V2Dir","Valid"],"latitude":51.0,"longitude":9.0},
{"nickname":"ralphtheninja","fingerprint":"2E0446054FA3E9D55F6018638B56DF3B5E5BEA85","flags":["Fast","Guard","Named","Running","Stable","Valid"],"latitude":58.4167,"longitude":15.6167},
{"nickname":"default","fingerprint":"13D8B60276EC36BFACEFF174C1C10D20632ACA71","flags":["Running","V2Dir","Valid"],"latitude":51.0,"longitude":9.0},
{"nickname":"Emzy","fingerprint":"FD8A91FE9598919D2A2C2136882CDD2012FD2924","flags":["Fast","Guard","HSDir","Running","Stable","Unnamed","V2Dir","Valid"],"latitude":51.0,"longitude":9.0},
{"nickname":"PiStateRelay","fingerprint":"7C5BABEDB03672457AA834B05192B17970D2B3B9","flags":["Running","Valid"],"latitude":51.5,"longitude":-0.13},
{"nickname":"Unnamed","fingerprint":"D4EC2780529258FDBD8D09D96B87FCE8E23A9DD5","flags":["Running","V2Dir","Valid"],"latitude":44.4333,"longitude":26.1},
{"nickname":"Unnamed","fingerprint":"4D9683469B6C8ED0695C0373B74589E26D1D3420","flags":["Exit","Fast","Running","V2Dir","Valid"],"latitude":52.0,"longitude":20.0},
{"nickname":"Pacbert","fingerprint":"18BA49F1AFA3680D364B59BAC49F1CB9316E25CB","flags":["Named","Running","Valid"],"latitude":52.1156,"longitude":9.7259},
{"nickname":"Unnamed","fingerprint":"CFB35A87569D727BF8AEDD844BBA15F78E1A1BEF","flags":["Exit","Fast","Running","Stable","Valid"],"latitude":38.0,"longitude":-97.0},
{"nickname":"younix","fingerprint":"1D0694069A107930E2E95F9AF09520EBEE2994FF","flags":["Fast","Running","Valid"],"latitude":52.5167,"longitude":13.4},
{"nickname":"UtahState1","fingerprint":"40DF7E2EDE33DFCB126D241BD1907EED70925498","flags":["Fast","Guard","HSDir","Named","Running","Stable","V2Dir","Valid"],"latitude":41.6412,"longitude":-111.8966},
{"nickname":"ShardsOfNarsil","fingerprint":"984096B174736E641F25B1B18312DA8629F1B2C4","flags":["Fast","HSDir","Running","Stable","Unnamed","V2Dir","Valid"],"latitude":35.3014,"longitude":-80.8983},
{"nickname":"unrelais","fingerprint":"3F0F1102C7A93FB4A36AE23841EE411BE7AAAA1B","flags":["Exit","Fast","Named","Running","Stable","Valid"],"latitude":48.8667,"longitude":2.3333},
{"nickname":"Unnamed","fingerprint":"372082F3E01DE6A6333D30329C6903A19D0E8E87","flags":["Fast","Guard","Running","Stable","Valid"],"latitude":60.0,"longitude":100.0},
{"nickname":"Unnamed","fingerprint":"E28E8717957DDA28D7F7770FF4869EBDFBD8E7F8","flags":["Running","V2Dir","Valid"],"latitude":43.5995,"longitude":1.4332},
{"nickname":"mailus","fingerprint":"E86D858F2AAF9DE2A2B952A0BF864B7F35EDC8A3","flags":["Fast","Guard","HSDir","Named","Running","Stable","V2Dir","Valid"],"latitude":51.0,"longitude":9.0},
{"nickname":"Unnamed","fingerprint":"3513B9810702104C360A17B6287B31BDDE2379E9","flags":["Fast","Guard","HSDir","Running","Stable","V2Dir","Valid"],"latitude":52.5167,"longitude":13.4},
{"nickname":"vodypitel","fingerprint":"D55D8FC7959440D18188A2ED3C139BBE441731B9","flags":["Fast","HSDir","Named","Running","Stable","V2Dir","Valid"],"latitude":49.2814,"longitude":16.5648},
{"nickname":"Wov","fingerprint":"F5D87B307B4F1F5D5C168BBC937D24C2C06150B9","flags":["Fast","HSDir","Named","Running","V2Dir","Valid"],"latitude":31.5,"longitude":34.75},
{"nickname":"aphelion","fingerprint":"F258F62D2C33D556E73A6758703BF53ABCB7724E","flags":["Fast","Running","Unnamed","V2Dir","Valid"],"latitude":51.3148,"longitude":12.2912},
{"nickname":"calamuchita","fingerprint":"CFF6F3B4B36925D7FE442204F11D657A2F8A43D8","flags":["Fast","Guard","Running","Stable","Unnamed","Valid"],"latitude":49.75,"longitude":15.5},
{"nickname":"grickle","fingerprint":"D03559EFAE2F8CC17F123DA970BA9FEA56FFCC6B","flags":["Fast","Guard","Named","Running","Stable","Valid"],"latitude":39.4899,"longitude":-74.4773},
{"nickname":"Leverage","fingerprint":"2F2D12FFE03F395A2F666FA591920E3EFEBBF416","flags":["Fast","Guard","HSDir","Named","Running","Stable","V2Dir","Valid"],"latitude":51.0,"longitude":9.0},
{"nickname":"OrbotRelay","fingerprint":"6081593E382EAAB50296815579C7989398C24BD4","flags":["Running","Valid"],"latitude":38.0,"longitude":-97.0},
{"nickname":"ParadiseTorRelay1","fingerprint":"2FF59F43C684EC53B9A4E7AE980451A466368F8F","flags":["Fast","Guard","HSDir","Named","Running","Stable","V2Dir","Valid"],"latitude":62.0,"longitude":15.0},
{"nickname":"4x13net","fingerprint":"5B4A76173A862F2DA6F31297D1F6A6E40E09F85E","flags":["Fast","Running","V2Dir","Valid"],"latitude":45.4818,"longitude":-122.6005},
{"nickname":"default","fingerprint":"E9234D427C41B0D5260319B8FC6EEA26958B59BD","flags":["Exit","Running","V2Dir","Valid"],"latitude":42.8333,"longitude":12.8333},
{"nickname":"DelfrCorp","fingerprint":"66E47E3847A5207FD6D86CDA8D3D405BB56A1473","flags":["Fast","Named","Running","V2Dir","Valid"],"latitude":41.538,"longitude":-90.5531},
{"nickname":"f3ndotsentry2","fingerprint":"309CBDA40F1EDB8BC08969F578F7AFCC905D9DE2","flags":["Fast","Guard","Named","Running","Stable","Valid"],"latitude":47.3333,"longitude":13.3333},
{"nickname":"blocktrade","fingerprint":"E6ABA68D6181E8A438E114326589456B2E2AC3B7","flags":["Exit","Fast","Guard","Named","Running","Stable","Valid"],"latitude":60.0,"longitude":-95.0},
{"nickname":"Unnamed","fingerprint":"FC114C79AEDD0AAB3A66D6C2CBDE16B7D214B8AF","flags":["Running","V2Dir","Valid"],"latitude":19.2883,"longitude":-99.6672},
{"nickname":"skynetbunker","fingerprint":"157D913EB4B8FF7ED29F05A6648B4170DEE07412","flags":["Fast","HSDir","Named","Running","Stable","V2Dir","Valid"],"latitude":55.9198,"longitude":-4.0526},
{"nickname":"zeedaile","fingerprint":"DA2E42679B1A744651AFCA9CA513E30089D0890A","flags":["Fast","Guard","Running","Valid"],"latitude":38.0,"longitude":-97.0},
{"nickname":"janschejbalHetzner1","fingerprint":"A9FBC88876B81B7457786D85C475EA6B165DA99F","flags":["Fast","Guard","HSDir","Named","Running","Stable","V2Dir","Valid"],"latitude":49.4478,"longitude":11.0683},
{"nickname":"default","fingerprint":"FE8F158635FBC47FD3ED0FCD268B413D41C5D5E3","flags":["Running","V2Dir","Valid"],"latitude":47.9942,"longitude":7.847},
{"nickname":"domovino","fingerprint":"8F001343A87BF0B5B1F631F0DCDE3324C06E324C","flags":["Exit","Fast","Guard","Named","Running","Stable","Valid"],"latitude":45.1667,"longitude":15.5},
{"nickname":"Unnamed","fingerprint":"A799ED19F0FBFA769E1247501BB549D3CBD53A8A","flags":["Fast","Guard","HSDir","Running","Stable","V2Dir","Valid"],"latitude":52.5167,"longitude":13.4},
{"nickname":"cryonoxnet","fingerprint":"451C144A35AAD47AF91FCE3021B4B982F6811335","flags":["Fast","Named","Running","Stable","Valid"],"latitude":29.7523,"longitude":-95.367},
{"nickname":"rathergonaked","fingerprint":"EFE2B559510CC754EDCA0F4B5595A706F714BE4C","flags":["Fast","Named","Running","Valid"],"latitude":49.2431,"longitude":6.9757},
{"nickname":"whopper","fingerprint":"E4FB2CA90F68521BA43E737DE9AE8C38B312B916","flags":["Named","Running","Valid"],"latitude":48.5333,"longitude":7.8833},
{"nickname":"servustor","fingerprint":"EBEA9F414CB0583CFCF37EE590381449992EC805","flags":["Exit","Fast","HSDir","Named","Running","Stable","V2Dir","Valid"],"latitude":47.3333,"longitude":13.3333},
{"nickname":"welladjusted","fingerprint":"C8B696D5D5B92BBD0ED243E04A0CF31E93FC537D","flags":["Fast","Running","Valid"],"latitude":51.0,"longitude":9.0},
{"nickname":"salottisipuli","fingerprint":"04ABF90AEF8556F3A7E0527722CDFA7FDCB66C59","flags":["Named","Running","Stable","Valid"],"latitude":60.4,"longitude":25.6667},
{"nickname":"ArikaYumemiya","fingerprint":"940850BDE514895F68B30D05C99637A0D27D07A9","flags":["Fast","Guard","HSDir","Running","Stable","Unnamed","V2Dir","Valid"],"latitude":32.9299,"longitude":-96.8353},
{"nickname":"relaypty","fingerprint":"739E01DC8BD7CE49F53022D668722800D3B1D97D","flags":["Running","V2Dir","Valid"],"latitude":8.5667,"longitude":-82.4167},
{"nickname":"CollogueTorNl","fingerprint":"88570D5729471CD6B9A318391BD215B9E8B40295","flags":["Fast","HSDir","Running","Stable","V2Dir","Valid"],"latitude":52.5,"longitude":5.75},
{"nickname":"geekbox","fingerprint":"9BF04559224F0F1C3C953D641F1744AF0192543A","flags":["Fast","Named","Running","Valid"],"latitude":51.0,"longitude":9.0},
{"nickname":"Unnamed","fingerprint":"0D6D2CAAFBB32BA85EE5162395F610AE42930124","flags":["Fast","Guard","Running","Stable","Valid"],"latitude":51.0,"longitude":9.0},
{"nickname":"torNZ","fingerprint":"5F2E58FFB444822ABB019CD599B4DE3F0118C054","flags":["Fast","Guard","HSDir","Named","Running","Stable","V2Dir","Valid"],"latitude":-43.5333,"longitude":172.6333},
{"nickname":"LizardNetTorRelay","fingerprint":"47348DE17E947B4BACD73EBE533149624DDF9174","flags":["Fast","Guard","HSDir","Named","Running","Stable","V2Dir","Valid"],"latitude":39.4899,"longitude":-74.4773},
{"nickname":"default","fingerprint":"EE285309CCD0AD8BA533CB139444A318166D56D6","flags":["Running","V2Dir","Valid"],"latitude":47.87,"longitude":12.6388},
{"nickname":"ieditedtehconfig","fingerprint":"62CF34FFC6054B3BDB4B6F55C4BFBA771EC07E70","flags":["Exit","Fast","Guard","HSDir","Named","Running","Stable","V2Dir","Valid"],"latitude":49.75,"longitude":15.5},
{"nickname":"Unnamed","fingerprint":"59862556E69E040A963E555901697EE091EBAD29","flags":["Fast","HSDir","Running","Stable","V2Dir","Valid"],"latitude":49.75,"longitude":6.1667},
{"nickname":"wr9p7z03u55513e5Q","fingerprint":"37C6C2E69914665E4761A02C8C8A0886DDF47490","flags":["Fast","Named","Running","Stable","Valid"],"latitude":51.0,"longitude":9.0},
{"nickname":"curlynode","fingerprint":"5EFCBF0F680D6ECE0F645449F9B9BDFC3F32F3DB","flags":["Fast","Guard","Named","Running","Stable","Valid"],"latitude":65.0,"longitude":-18.0},
{"nickname":"mgm","fingerprint":"A59F99F99E18ACB2853FD64DE826966837EA11AD","flags":["Named","Running","Valid"],"latitude":22.3,"longitude":-97.85},
{"nickname":"StickItToTheMan","fingerprint":"6A6AADCB1D026EA608490640B9F2A02B91C9CAC4","flags":["Fast","Guard","Running","Stable","Unnamed","Valid"],"latitude":47.0,"longitude":8.0},
{"nickname":"pururumlandian","fingerprint":"CA48277C787CB4F314531581BCC8C36ACA965579","flags":["Fast","HSDir","Named","Running","Stable","V2Dir","Valid"],"latitude":55.7522,"longitude":37.6156},
{"nickname":"Unnamed","fingerprint":"AB4E8198E63215D0068186957B3573017DA8DC72","flags":["Fast","HSDir","Running","V2Dir","Valid"],"latitude":28.0374,"longitude":-82.3902},
{"nickname":"43Services","fingerprint":"514DC4887824F7E0F208AF6AE77A93722BFDD8D1","flags":["Exit","Fast","Guard","HSDir","Named","Running","Stable","V2Dir","Valid"],"latitude":47.3078,"longitude":-122.2643},
{"nickname":"juaN","fingerprint":"DDE5317A3DCBD13009DEECF6DFA131746E1BA80A","flags":["Fast","Guard","Named","Running","Stable","Valid"],"latitude":48.86,"longitude":2.35},
{"nickname":"Atlantis1","fingerprint":"2BBE56D722FD4CF912A872AD4422E3864B228649","flags":["Fast","Guard","HSDir","Named","Running","Stable","V2Dir","Valid"],"latitude":51.65,"longitude":6.1833},
{"nickname":"ChampiOnion","fingerprint":"8196B099347189322D6688C3644F8DAEF6D65BF5","flags":["Fast","Running","Stable","Unnamed","Valid"],"latitude":35.69,"longitude":139.69},
{"nickname":"kibibyte","fingerprint":"61A8F71DB2AA271D991F1663982CB7D35DCB8665","flags":["Fast","Guard","Named","Running","Stable","Valid"],"latitude":58.4167,"longitude":15.6167},
{"nickname":"nebulator","fingerprint":"DD0F442C284241B7DAF80A8FB275B9C26D2C7BAE","flags":["Exit","Fast","Guard","Running","Stable","Unnamed","Valid"],"latitude":51.5,"longitude":-0.13},
{"nickname":"KuLpOIOP2TzZUyPIG","fingerprint":"A6AF01E9AC554FE0BC951DFCE587563EB12F655F","flags":["Fast","Running","V2Dir","Valid"],"latitude":52.0308,"longitude":8.5133},
{"nickname":"Unnamed","fingerprint":"0FDE14A48B2DB14E3C8229F009F0DFA6E69BCD07","flags":["Fast","Running","Stable","V2Dir","Valid"],"latitude":51.434,"longitude":7.0161},
{"nickname":"iatesometorpi","fingerprint":"3DB34AD0A909B3BBC101A38C72069DB42714E618","flags":["Fast","Named","Running","V2Dir","Valid"],"latitude":51.0,"longitude":6.5833},
{"nickname":"GiddyUp","fingerprint":"1A414E86781CF3B54B9124170A4D0C0D2A26A127","flags":["Fast","HSDir","Named","Running","V2Dir","Valid"],"latitude":40.6583,"longitude":-111.9231},
{"nickname":"anonion","fingerprint":"0A73EE3A563227604535E31BF9D806D5CFBC8DDE","flags":["Exit","Fast","HSDir","Running","Unnamed","V2Dir","Valid"],"latitude":53.8,"longitude":-1.5833},
{"nickname":"keldarion8","fingerprint":"5F341AD0EA2A1931E8AD662ED4A69BFD5666EE26","flags":["Fast","Guard","HSDir","Named","Running","Stable","V2Dir","Valid"],"latitude":38.0,"longitude":-97.0},
{"nickname":"TimMayTribute","fingerprint":"30B89C443772A4CDE8FD54A064D90FF660B14377","flags":["Named","Running","V2Dir","Valid"],"latitude":51.25,"longitude":22.5667},
{"nickname":"blackmamba","fingerprint":"896364B7996F5DFBA0E15D1A2E06D0B98B555DD6","flags":["Fast","Guard","Named","Running","Stable","V2Dir","Valid"],"latitude":46.0,"longitude":25.0},
{"nickname":"netf","fingerprint":"D86A16D55840417B7F20E81E6BF20411E13D097A","flags":["Fast","Named","Running","Stable","Valid"],"latitude":51.0,"longitude":9.0},
{"nickname":"ididnteditheconfig","fingerprint":"AE05F0ADFF15A2376599B3A307EC03200A1A1729","flags":["Fast","Guard","Running","Stable","Valid"],"latitude":57.7167,"longitude":11.9667},
{"nickname":"heynowheynow","fingerprint":"25871BF90689B270BB6FE873F9C72760AB026DD1","flags":["Fast","Named","Running","Stable","Valid"],"latitude":37.9063,"longitude":-122.065},
{"nickname":"amable","fingerprint":"7FCD0682CD955DD5C198D245C4C23C67A03A3D14","flags":["Exit","Named","Running","V2Dir","Valid"],"latitude":51.0,"longitude":9.0},
{"nickname":"Unnamed","fingerprint":"A0F5251389F463B47A93A0E0384170993BF3F1EE","flags":["Running","Valid"],"latitude":-27.0,"longitude":133.0},
{"nickname":"maytheworld","fingerprint":"021A3A50BB056CAD09968FD7765D1AA78B580A6D","flags":["Named","Running","Stable","Valid"],"latitude":52.0888,"longitude":13.1638},
{"nickname":"OrbotRelay","fingerprint":"94C40A661ADD1678D7F73FDE07EBEC869B3822EE","flags":["Running","Valid"],"latitude":52.5,"longitude":5.75},
{"nickname":"doubtfire","fingerprint":"EEF07A53E17041BAE5D826CA5979911D7AD4D6A3","flags":["Exit","Fast","HSDir","Named","Running","Stable","V2Dir","Valid"],"latitude":49.0,"longitude":32.0},
{"nickname":"Matrix","fingerprint":"41EBDA693B51D6BC5D3EA6FA34BC80BAC801D120","flags":["Fast","Named","Running","Stable","Valid"],"latitude":48.0167,"longitude":11.9167},
{"nickname":"zdratcenBG","fingerprint":"6DBAFF8897EBA67BF4CF971FCE0E7CB5C526E796","flags":["Exit","Fast","HSDir","Named","Running","Stable","V2Dir","Valid"],"latitude":42.6833,"longitude":23.3167},
{"nickname":"Gianni","fingerprint":"00314E59AD9D5386C6AE4D3B06367A8B5D987995","flags":["Exit","Fast","Guard","Named","Running","Stable","Valid"],"latitude":52.5,"longitude":5.75},
{"nickname":"HKRealDemocracy","fingerprint":"4A36BF5645E0D61228BBAB2750CCF9EB20D2C17D","flags":["Fast","Named","Running","Stable","V2Dir","Valid"],"latitude":22.2833,"longitude":114.15},
{"nickname":"ferrot04st","fingerprint":"410B3D01E9CBC4BBCC863F2B3BA45787B9F575C2","flags":["Fast","HSDir","Running","Stable","Unnamed","V2Dir","Valid"],"latitude":42.9864,"longitude":-78.7279},
{"nickname":"default","fingerprint":"B94F26DAAAC0F26E080E03242CA00CF8EF39897A","flags":["Running","V2Dir","Valid"],"latitude":51.0,"longitude":9.0},
{"nickname":"electron1","fingerprint":"60BD6B30B0FD50DBA79F047185DE1B3F7AB074D2","flags":["Fast","Named","Running","Valid"],"latitude":55.7522,"longitude":37.6156},
{"nickname":"Edon","fingerprint":"201B32200A6AC5B106E6BB3DDE9CBD270A4D73D5","flags":["Fast","Running","Unnamed","V2Dir","Valid"],"latitude":49.2,"longitude":16.6333},
{"nickname":"Unnamed","fingerprint":"ADB38A535DE380C98592F2292FF599DE9CB0D526","flags":["Fast","Running","Valid"],"latitude":60.0,"longitude":100.0},
{"nickname":"OrbotRelay","fingerprint":"D4454BEEA91AED176123E2472F45817597FDF1AB","flags":["Running","Valid"],"latitude":38.0,"longitude":-97.0},
{"nickname":"nestor00patof","fingerprint":"C2781633B10F6C0C26DA9F6FE9D3B8ED4532B5CF","flags":["Named","Running","Stable","Valid"],"latitude":45.5409,"longitude":-73.6418},
{"nickname":"equalRightsDE","fingerprint":"858C6B4E7841661F3B6FE65392B79F4DB5B2EE15","flags":["Fast","Guard","HSDir","Named","Running","Stable","V2Dir","Valid"],"latitude":51.0,"longitude":9.0},
{"nickname":"default","fingerprint":"F2F9BA618A6995D812CA18C9086EFE0BFCF59369","flags":["Exit","Fast","Running","Valid"],"latitude":40.919,"longitude":-74.7026},
{"nickname":"AuroraNetNY1","fingerprint":"E804ED5C9B2B9249D8AAD988330176A2B48451A5","flags":["Fast","Named","Running","Stable","Valid"],"latitude":42.8884,"longitude":-78.8761},
{"nickname":"torobowollga","fingerprint":"49D6660158E0F7F9EBBF91E2CEC23BD3BB2C79E6","flags":["Named","Running","Valid"],"latitude":48.4171,"longitude":9.9635},
{"nickname":"doppleriffic","fingerprint":"1E074FF17CDCE708ED7A9E27E7926B8952C00CC0","flags":["Fast","Named","Running","Stable","V2Dir","Valid"],"latitude":39.1472,"longitude":-94.5735},
{"nickname":"default","fingerprint":"32A463DED132F2090602F219602B1A44ABA194B3","flags":["Running","V2Dir","Valid"],"latitude":52.1791,"longitude":8.6118},
{"nickname":"searcher","fingerprint":"46C56DE354E2C0C768392A3B8230531561191F52","flags":["Exit","Fast","HSDir","Running","Unnamed","V2Dir","Valid"],"latitude":55.7522,"longitude":37.6156},
{"nickname":"default","fingerprint":"17046F149C44285ADE05EA4D551F48D0F43752AB","flags":["Running","V2Dir","Valid"],"latitude":48.0988,"longitude":11.5204},
{"nickname":"Unnamed","fingerprint":"455B15C45BE1170E2879C9DE0D0AE7A219976D0A","flags":["Fast","Guard","Running","Stable","Valid"],"latitude":48.86,"longitude":2.35},
{"nickname":"0xstraightangle","fingerprint":"8F0E0DCAF32F243F3F75DA3954D821F3CCDD544C","flags":["Fast","Guard","HSDir","Running","Stable","Unnamed","V2Dir","Valid"],"latitude":36.0312,"longitude":-115.0739},
{"nickname":"TibusHeth","fingerprint":"ABB6E0AECF59ADFC8AFCE6FBCA8BFA784A39BF3E","flags":["Fast","HSDir","Running","Stable","V2Dir","Valid"],"latitude":59.4339,"longitude":24.7281},
{"nickname":"WhereIsMyPizza","fingerprint":"6A4174A01D30B8415B057182623F31F96F7047B9","flags":["Fast","HSDir","Running","Unnamed","V2Dir","Valid"],"latitude":48.8,"longitude":2.1333},
{"nickname":"nissefar","fingerprint":"7E3316685BDC5E20D30AFEDB1044C2259D984CC6","flags":["Fast","Running","Unnamed","Valid"],"latitude":59.9167,"longitude":10.75},
{"nickname":"default","fingerprint":"84CABAFF0DC1A9D69BB526B6E7A8EB72DE39AD8F","flags":["Running","Valid"],"latitude":34.7,"longitude":137.7333},
{"nickname":"scampler","fingerprint":"6E5153B70F40DEDA739BB8003AA134B9EAF43533","flags":["Fast","HSDir","Named","Running","V2Dir","Valid"],"latitude":50.6231,"longitude":26.2274},
{"nickname":"AccessNow1","fingerprint":"EB79F07792A065D3C534063773E83268E069F5EB","flags":["Exit","Fast","Guard","HSDir","Running","Stable","Unnamed","V2Dir","Valid"],"latitude":47.0,"longitude":8.0},
{"nickname":"GoldenRoad","fingerprint":"A7124E05767F90ACFBE7378A3CE196F51BF1CF67","flags":["Fast","Running","V2Dir","Valid"],"latitude":38.0,"longitude":-97.0},
{"nickname":"KsmoinO","fingerprint":"E5149D7F77E3E3C4C446187EECA7C52DF5E5BC87","flags":["Named","Running","Stable","Valid"],"latitude":44.8333,"longitude":-0.5667},
{"nickname":"Unnamed","fingerprint":"AB08C29C29BDDD9030A6348664650C4FC2418FE4","flags":["Fast","HSDir","Running","V2Dir","Valid"],"latitude":48.86,"longitude":2.35},
{"nickname":"Falcon","fingerprint":"874786AE2D973602041D4A1A145D2A8435C88B6F","flags":["Fast","Guard","HSDir","Running","Stable","Unnamed","V2Dir","Valid"],"latitude":51.0,"longitude":9.0},
{"nickname":"default","fingerprint":"353ADD41B6009D9A2E39798B8CE04F4D92A38394","flags":["Fast","Running","V2Dir","Valid"],"latitude":48.15,"longitude":11.5833},
{"nickname":"OrbotRelay","fingerprint":"344FEA0D6118FE15AEFA2356BD11AF7E586BCFBD","flags":["Running","Valid"],"latitude":25.0,"longitude":45.0},
{"nickname":"pegasus","fingerprint":"0372D8199DB4843EEC63801435915A9607D71A86","flags":["Fast","Guard","Named","Running","Stable","Valid"],"latitude":38.0,"longitude":-97.0},
{"nickname":"repo","fingerprint":"8D4BB81223317748C136BAEC338894FB7486E108","flags":["Exit","Fast","Running","Unnamed","V2Dir","Valid"],"latitude":50.8333,"longitude":4.0},
{"nickname":"nztsS2G7NPsr","fingerprint":"3D9B2B25A92FB5C2B73751FBC21A38522EC9D4AB","flags":["Exit","Fast","Guard","HSDir","Named","Running","Stable","V2Dir","Valid"],"latitude":40.7421,"longitude":-74.0018},
{"nickname":"RMSbeardofjustice","fingerprint":"3E1CBDBA114BE28F0815C948A9BBAC06A135F19F","flags":["Fast","Running","Stable","V2Dir","Valid"],"latitude":34.7304,"longitude":-86.5861},
{"nickname":"hviv103","fingerprint":"89E3170B4E2FC9A430FB97536769FC0ABF6C4DB3","flags":["Exit","Fast","Guard","Running","Stable","Unnamed","Valid"],"latitude":51.0,"longitude":9.0},
{"nickname":"CalyxInstitute09","fingerprint":"7761DDC7EB1BE26D4155F74A15F12C32A36FE0F2","flags":["Exit","Fast","Guard","HSDir","Named","Running","Stable","V2Dir","Valid"],"latitude":38.0,"longitude":-97.0},
{"nickname":"dropsy","fingerprint":"774555642FDC1E1D4FDF2E0C31B7CA9501C5C9C7","flags":["Fast","HSDir","Running","Stable","V2Dir","Valid"],"latitude":52.5,"longitude":5.75},
{"nickname":"OutoftheMatrix","fingerprint":"7589DC7908A8BBA2A3B07C4A8C708CA6320A59EF","flags":["Named","Running","V2Dir","Valid"],"latitude":48.86,"longitude":2.35},
{"nickname":"Unnamed","fingerprint":"A8A90469E21231FB3EDB262EAA9D714F001F44A0","flags":["Fast","Running","Valid"],"latitude":51.0,"longitude":9.0},
{"nickname":"NewCourier","fingerprint":"9B31C66D8160430EE10866C8CA8D62D168A1BB95","flags":["Fast","Named","Running","Valid"],"latitude":40.4249,"longitude":-86.9162},
{"nickname":"holyholy","fingerprint":"8D6DD58368727FA78849FCF03D146207746067DA","flags":["Named","Running","Stable","Valid"],"latitude":60.1,"longitude":10.8667},
{"nickname":"freeiscream","fingerprint":"23119CE8E58452074A2ED733D5D9CE4DEA5DC86B","flags":["Fast","Guard","Named","Running","Stable","Valid"],"latitude":51.65,"longitude":6.1833},
{"nickname":"sldurpdurp","fingerprint":"1336CF47D9C79E668572B1BED7329E4F7CA961F7","flags":["Fast","Guard","Running","Stable","Unnamed","Valid"],"latitude":39.4899,"longitude":-74.4773},
{"nickname":"slirp","fingerprint":"87DC51198EB7B3CF4A8E396E0230810F12526A5C","flags":["Fast","HSDir","Running","V2Dir","Valid"],"latitude":41.9728,"longitude":-87.6616},
{"nickname":"OrbotRelay","fingerprint":"B11E20D3522EAB34336AF99D73C6FB03B63E0653","flags":["Running","Valid"],"latitude":32.0,"longitude":-5.0},
{"nickname":"AloofLaborer","fingerprint":"1B2EDEB49E48F41A4A85200886D68430E79E7B6F","flags":["Fast","Named","Running","Stable","Valid"],"latitude":38.0,"longitude":-97.0},
{"nickname":"TorAustralisXXX","fingerprint":"F86C7E60CD88305607F6F08D8A77292084F4E4C3","flags":["Fast","Guard","HSDir","Named","Running","Stable","V2Dir","Valid"],"latitude":42.9864,"longitude":-78.7279},
{"nickname":"DigitalOceanSG2","fingerprint":"75792567A1049D4550F508888BA3DF7ACE624D21","flags":["Fast","Running","Stable","Valid"],"latitude":1.2931,"longitude":103.8558},
{"nickname":"AppleEater","fingerprint":"9AD9438D170BE1D1E2DE8688820435B0F8F60080","flags":["Fast","Guard","HSDir","Running","Stable","Unnamed","V2Dir","Valid"],"latitude":40.7355,"longitude":-74.1741},
{"nickname":"RunningOnFumes3","fingerprint":"4500C375A6BF37DD2B0AD7E36BAF38B6EA843BD0","flags":["Exit","Fast","Named","Running","Valid"],"latitude":42.9864,"longitude":-78.7279},
{"nickname":"Unnamed","fingerprint":"1C890314E5AB1240CDB8A6FDD1590DBF0EFD1BB8","flags":["Fast","Running","Stable","Valid"],"latitude":53.3,"longitude":-2.3667},
{"nickname":"gap00231","fingerprint":"75DF14AA364152CE23EBF542152BF1B3155A2FD0","flags":["Exit","Fast","Named","Running","Valid"],"latitude":51.0,"longitude":9.0},
{"nickname":"blackteaandrum","fingerprint":"F6437C9AEB9C9A4120D3CF33D4D03736B8309AD0","flags":["Fast","Guard","Running","Stable","Valid"],"latitude":42.8884,"longitude":-78.8761},
{"nickname":"FreeInternet","fingerprint":"0728E409E9E7A1CD3AAA20304AF18D70446438F4","flags":["Fast","Named","Running","V2Dir","Valid"],"latitude":38.5568,"longitude":-121.4963},
{"nickname":"default","fingerprint":"E82A8BEAFDF7BE34A2E77854A40EC1D485538E91","flags":["Exit","Fast","Guard","HSDir","Running","Stable","V2Dir","Valid"],"latitude":52.35,"longitude":4.9167},
{"nickname":"khorgis","fingerprint":"038D55A6EDDBF71EB97AF9223223D9F135DF9F9A","flags":["Named","Running","V2Dir","Valid"],"latitude":30.2198,"longitude":-98.3586},
{"nickname":"default","fingerprint":"265135A20F2C0B4E8BCD22F25BA830BEBDFD3E63","flags":["Fast","HSDir","Running","Stable","V2Dir","Valid"],"latitude":37.5985,"longitude":126.9783},
{"nickname":"keepitfree","fingerprint":"4A696E91E298C46B3A1AFC6E15FEABBA90D9C7A0","flags":["Fast","Named","Running","V2Dir","Valid"],"latitude":38.0,"longitude":-97.0},
{"nickname":"Unnamed","fingerprint":"B01A897DB26AC6002039A4AE5E2580364B2955A0","flags":["Running","V2Dir","Valid"],"latitude":48.86,"longitude":2.35},
{"nickname":"chamaeleon","fingerprint":"9278E1C3F5841D032DE7C882E391A813D40904BE","flags":["Named","Running","V2Dir","Valid"],"latitude":52.3395,"longitude":10.2492},
{"nickname":"Unnamed","fingerprint":"F123539BCE356B173C9A885392E740C35E52C913","flags":["Fast","Guard","Running","Stable","Valid"],"latitude":51.4174,"longitude":-1.0361},
{"nickname":"psyrelay","fingerprint":"F614E2945D961AF680BB94C0CBA6EAD297ED2060","flags":["Fast","Named","Running","Stable","Valid"],"latitude":51.0,"longitude":9.0},
{"nickname":"default","fingerprint":"62B503C07DB2682327A92BCB726238BAA41AA29B","flags":["Running","V2Dir","Valid"],"latitude":28.4667,"longitude":77.0333},
{"nickname":"Unnamed","fingerprint":"07EEB6C02A521D17447A273EA042BFEB7A6BF271","flags":["Fast","Running","V2Dir","Valid"],"latitude":37.57,"longitude":126.98},
{"nickname":"mrshell","fingerprint":"27BE278C1F2325716529D0BF20BACBA2AC8C3F14","flags":["Running","Valid"],"latitude":48.3667,"longitude":8.65},
{"nickname":"Huubknops","fingerprint":"AD805F79DE50FCDD2F2153062A4F5F307232CBEB","flags":["Exit","Fast","HSDir","Running","Stable","Unnamed","V2Dir","Valid"],"latitude":52.0833,"longitude":4.3},
{"nickname":"default","fingerprint":"6A04A32140CFBE1FE2296A0F7867E4D198A6ED72","flags":["Running","V2Dir","Valid"],"latitude":48.3667,"longitude":8.65},
{"nickname":"Unnamed","fingerprint":"BE29CA99A85C1775E06EAD425C8F6C36F6372995","flags":["Running","Stable","Valid"],"latitude":51.5,"longitude":-0.13},
{"nickname":"CherryBomb","fingerprint":"91299A98DFED12703C9186C28646D611ABE95324","flags":["Exit","Running","V2Dir","Valid"],"latitude":22.25,"longitude":114.1667},
{"nickname":"default","fingerprint":"AB014E9F149B4BA018F643DE18B9581EAFDB4CF5","flags":["HSDir","Running","V2Dir","Valid"],"latitude":40.3953,"longitude":49.8822},
{"nickname":"lioncity","fingerprint":"AC4253D09D9C4FE6781C8F9094AA62A2A80EF20D","flags":["Fast","Guard","Named","Running","Stable","Valid"],"latitude":1.2931,"longitude":103.8558},
{"nickname":"somuchwow","fingerprint":"D285EA497E089D74F42A8B1DCFF3BF720D89023C","flags":["Fast","Running","Stable","Valid"],"latitude":51.0,"longitude":9.0},
{"nickname":"tornode1","fingerprint":"B717BC9526EAB1F911B5A6B78606BDAC7042295B","flags":["Fast","Named","Running","Stable","Valid"],"latitude":32.8073,"longitude":-117.1324},
{"nickname":"default","fingerprint":"02440997283DA72646482236E19BC0E7BDD9083E","flags":["Running","V2Dir","Valid"],"latitude":19.43,"longitude":-99.13},
{"nickname":"schuerrle","fingerprint":"B65CD9C13350C4269DDE8BE700B5A00EE799E692","flags":["Running","V2Dir","Valid"],"latitude":33.749,"longitude":-84.388},
{"nickname":"tor26","fingerprint":"847B1F850344D7876491A54892F904934E4EB85D","flags":["Authority","HSDir","Named","Running","Stable","V2Dir","Valid"],"latitude":47.3333,"longitude":13.3333},
{"nickname":"SchwartzTorNodeA01x","fingerprint":"E4D38A7CA43B61D6F46BC903ABF3EFC1AD408B11","flags":["Fast","Named","Running","V2Dir","Valid"],"latitude":51.0,"longitude":9.0},
{"nickname":"zantetsuken63","fingerprint":"E17A26436289340886B90C85D14677FE12B2A86F","flags":["Named","Running","Valid"],"latitude":55.7522,"longitude":37.6156},