{"relays_published":"2014-07-05 16:00:00",
"relays":[
{"fingerprint":"29D6DF185A2708B6CC2564917888C8F92FA7AF6C","country":"us","city_name":"Asheville","latitude":35.5283,"longitude":-82.5225},
{"fingerprint":"C5EA141A8584497D67C320BF5B02A4B99ED7402E","country":"fr","latitude":48.86,"longitude":2.35},
{"fingerprint":"EA3CEF89ABC93F177A88BDDAF778BE4BBE356C00","country":"gr","latitude":39.0,"longitude":22.0},
{"fingerprint":"0C07E72E4ACE50611107E86C790AD42A45320F01","country":"fr","city_name":"Toulouse","latitude":43.6043,"longitude":1.4437},
{"fingerprint":"9195827EA4FDCFB7D0041D2C9FBE55AF5B1F3A3F","country":"us","city_name":"Belmont","latitude":37.5081,"longitude":-122.301},
{"fingerprint":"8916A2D9549B09EF6C4800A8FC49DAE0DB6FCEA1","country":"de","city_name":"Leipzig","latitude":51.3667,"longitude":12.3833},
{"fingerprint":"427DEDAA28D39672F3D9B7714170C724634671F3","country":"at","latitude":47.3333,"longitude":13.3333},
{"fingerprint":"4417D4AFF41184F796714ACA7FF34B95E6D4192D","country":"de","latitude":51.0,"longitude":9.0},
{"fingerprint":"107A5BDB76D899ED09D39BAD95D89BE793976BF2","country":"se","latitude":62.0,"longitude":15.0},
{"fingerprint":"6012468EB8AD5D86E736D3C10B657FA2F8AE0DFC","country":"lu","latitude":49.75,"longitude":6.1667},
{"fingerprint":"689117EB7718496775738E19C9FD2FD342C398D2","country":"us","city_name":"Dallas","latitude":32.7831,"longitude":-96.8067},
{"fingerprint":"05EF7769079D1922B1BEA7ED23B5F8118AFC4154","country":"us","latitude":38.0,"longitude":-97.0},
{"fingerprint":"C397348334215FCB57302199F9BDD35786602A8A","country":"de","city_name":"Nuremberg","latitude":49.4478,"longitude":11.0683},
{"fingerprint":"6B2A6836F5F2857BD8B819F53FBF8BAEEBE8A4CA","country":"ch","city_name":"Minusio","latitude":46.1752,"longitude":8.8201},
{"fingerprint":"36D752784736AEAE4550F20A4D1782F6948D871B","country":"de","latitude":51.0,"longitude":9.0},
{"fingerprint":"C2939732EF55433E5F9A679C506970AB02C00441","country":"ru","city_name":"Ulyanovsk","latitude":54.3282,"longitude":48.3866},
{"fingerprint":"82C6C4A7E7D1F71050367BE156DD313C6D950CE4","country":"cz","latitude":49.75,"longitude":15.5},
{"fingerprint":"67521314A1E589DA9467326ECD0C727DA0C35ACB","country":"br","latitude":-10.0,"longitude":-55.0},
{"fingerprint":"DB90C8891D49893E50F61DE92231E799024B2882","country":"md","city_name":"Chi\u00C5\u009Fin\u00C4\u0083u","latitude":47.0056,"longitude":28.8575},
{"fingerprint":"E756F49CC684DFF3A5CBAA7C0854E4FC15F9BAD1","country":"de","city_name":"Karlsfeld","latitude":48.2167,"longitude":11.4667},
{"fingerprint":"83C1154E28B9094573F81941E869E64AA43E9022","country":"us","city_name":"Walnut","latitude":34.0115,"longitude":-117.8535},
{"fingerprint":"F7C16FEBF887C25421A6E4CA80FC0DF9F5150A2E","country":"gb","city_name":"Arnold","latitude":53.0,"longitude":-1.1333},
{"fingerprint":"A265F1DBE342A5BC6721C73F7832DAAEC8AC2053","country":"pl","latitude":52.0,"longitude":20.0},
{"fingerprint":"DD4EF4A727B866DEAF5D2C8CEAE23D0BE9B4B310","country":"de","latitude":51.0,"longitude":9.0},
{"fingerprint":"09F93D969008D57A26E8D6CCD5466BA85906CE82","country":"se","latitude":62.0,"longitude":15.0},
{"fingerprint":"EF8931ACD7426C8A83D18808427BC1E7F2A33F2E","country":"gb","city_name":"Amersham","latitude":51.6667,"longitude":-0.6167},
{"fingerprint":"BA49B03618298F26EA8E4CA07762CD613CAB3964","country":"us","city_name":"Burlington","latitude":44.4929,"longitude":-73.2253},
{"fingerprint":"A07FF746D9BA56C3F916BBD404307396BFA862E0","country":"de","latitude":51.0,"longitude":9.0},
{"fingerprint":"3E1CBDBA114BE28F0815C948A9BBAC06A135F19F","country":"us","city_name":"Huntsville","latitude":34.7304,"longitude":-86.5861},
{"fingerprint":"18AF6C055F31891BE5259FE780C143BFAC700AC3","country":"us","city_name":"Port Saint Lucie","latitude":27.2498,"longitude":-80.3797},
{"fingerprint":"D9923178C0D165241162C079AE79D4856E1BC084","country":"us","city_name":"Novinger","latitude":40.2377,"longitude":-92.7293},
{"fingerprint":"5424A28E31E6ECFCC7AEB554FD200131104F109E","country":"us","city_name":"Albuquerque","latitude":35.1988,"longitude":-106.7035},
{"fingerprint":"3949FD0AC7A94ABE8C7D96DA5DF0C11BE97649F6","country":"de","city_name":"Leipzig","latitude":51.3717,"longitude":12.3321},
{"fingerprint":"5B982BE8DB38B0E0700AAB2D80AE1A5E0D95528C","country":"cz","city_name":"Prague","latitude":50.0833,"longitude":14.4667},
{"fingerprint":"436B9C157D7F61F802529ED52C12615CF154C3CA","country":"nl","latitude":52.5,"longitude":5.75},
{"fingerprint":"D221168133A52C87E54048E8CBABCBA72AC30D31","country":"us","city_name":"San Jose","latitude":37.3338,"longitude":-121.8915},
{"fingerprint":"82D90A0A57A7491EB1DC151D3DB7818D21E4CDEB","country":"si","latitude":46.0,"longitude":15.0},
{"fingerprint":"CCAD699B76D46716D644CC3B9C8B8D4AA9AB2D70","country":"us","city_name":"Arlington","latitude":42.4166,"longitude":-71.1469},
{"fingerprint":"38454AFBB25D28F638F91030A64350E96BBA8482","country":"ch","city_name":"Zurich","latitude":47.3667,"longitude":8.55},
{"fingerprint":"50EE4EC76E18D2D9310D42E76F241A62270A75EA","country":"bg","latitude":43.0,"longitude":25.0},
{"fingerprint":"E16E7BB18B54224495DEA1F6D8945CEF3330BECF","country":"us","city_name":"Lawrence","latitude":38.9525,"longitude":-95.2756},
{"fingerprint":"31BF869AED6A7455B8566B317555362BFC054D17","country":"de","latitude":51.0,"longitude":9.0},
{"fingerprint":"4CD194C9D144310520E01A8DA5E4A11050EECAF8","country":"de","city_name":"Host","latitude":51.65,"longitude":6.1833},
{"fingerprint":"8356D7F4D430EA2F951F9571408C75293ED83868","country":"us","city_name":"New York","latitude":40.7267,"longitude":-73.9981},
{"fingerprint":"F4FCE2DE301D7122C169A0582076875E174DF48E","country":"us","city_name":"Troy","latitude":42.556,"longitude":-83.1178},
{"fingerprint":"C309A31AD772FFDD0805C9FECB6D4748A7CBF684","country":"de","latitude":51.0,"longitude":9.0},
{"fingerprint":"7CEB6540F80F7AEF17AB7FFB66D14212F7EB5654","country":"ro","latitude":46.0,"longitude":25.0},
{"fingerprint":"66CCAF6D781CCC87CA743B2DF0FC24F0BDB1766C","country":"ru","city_name":"Omsk","latitude":55.0,"longitude":73.4},
{"fingerprint":"06F292E96E6EFAAFC05CE19DF32A570F91F79249","country":"nl","city_name":"Delft","latitude":52.0186,"longitude":4.3782},
{"fingerprint":"7C0AA4E3B73E407E9F5FEB1912F8BE26D8AA124D","country":"us","city_name":"Durham","latitude":35.994,"longitude":-78.8986},
{"fingerprint":"18AC299420E36DC0C6C8E3CA6D8E0C9B1A38B932","country":"sk","latitude":48.6667,"longitude":19.5},
{"fingerprint":"C1AF3624633412D1516B58958A4220E18EDB3358","country":"us","city_name":"Boardman","latitude":45.7788,"longitude":-119.529},
{"fingerprint":"3623F638668AF56C2098CE7028A89EF2F422963E","country":"us","latitude":38.0,"longitude":-97.0},
{"fingerprint":"750941D54970ACE9EE0E10001D7FAFD15642D331","country":"fr","latitude":48.86,"longitude":2.35},
{"fingerprint":"4F39D97D19E01E0989AB6A0E045CD852374ED467","country":"de","latitude":51.0,"longitude":9.0},
{"fingerprint":"B710F809BC8BC60A187F4DA48F88AB246D351F45","country":"us","city_name":"Torrance","latitude":33.8302,"longitude":-118.3147},
{"fingerprint":"82C971ABB5CCCE5D32CDCDB4C9C2F0BFBB7917F0","country":"us","city_name":"Discovery Bay","latitude":37.9085,"longitude":-121.6002},
{"fingerprint":"127CD9009E019BC6E07DFE0A9515B7EB27C82D48","country":"de","latitude":51.0,"longitude":9.0},
{"fingerprint":"FAAE8BBC8B46327DECAC1068F8B10D681E86EF67","country":"us","latitude":38.0,"longitude":-97.0},
{"fingerprint":"C8BA453BD30D26B8D72D9F7D1FD9672DC28B40BC","country":"de","latitude":51.0,"longitude":9.0},
{"fingerprint":"74BF4160EB79873146A447FFE9253E802F67EAF6","country":"ru","city_name":"Kazan","latitude":55.7887,"longitude":49.1221},
{"fingerprint":"E5F3EDD927148C5EB4D7CB71DCBC91382F57A7A7","country":"us","city_name":"Scarborough","latitude":43.5781,"longitude":-70.3217},
{"fingerprint":"69B36B8B84268F5497D657F15656EB7733AEDF33","country":"se","city_name":"Stockholm","latitude":59.3333,"longitude":18.05},
{"fingerprint":"6A6AADCB1D026EA608490640B9F2A02B91C9CAC4","country":"ch","latitude":47.0,"longitude":8.0},
{"fingerprint":"8E65B652226D8E32613E0AE454FD0F5CC2F6379C","country":"fr","latitude":48.86,"longitude":2.35},
{"fingerprint":"7ACB2A855A0E5EDAF68097AE277113B8EDA9A0BB","country":"au","city_name":"Sydney","latitude":-33.8615,"longitude":151.2055},
{"fingerprint":"77D4472D4B33DED04D83C41F7B1AD24BFD8ADF2F","country":"de","latitude":51.0,"longitude":9.0},
{"fingerprint":"262B696E0E07CE88F09B43391C368FD247C220AB","country":"kr","latitude":37.57,"longitude":126.98},
{"fingerprint":"F0EA4CCC64CCC2E23DBBAE7230DC60C949B8650A","country":"us","city_name":"Sunnyvale","latitude":37.3688,"longitude":-122.0363},
{"fingerprint":"87987C299CB7421717BD6D11A93024EE85193CAC","country":"us","city_name":"Buffalo","latitude":42.9864,"longitude":-78.7279},
{"fingerprint":"5C94B920BAE4E634493805DBEFA28B9C3BFEFA0D","country":"de","latitude":51.0,"longitude":9.0},
{"fingerprint":"508004552343E5374B6570C76E9239AA23310684","country":"ru","city_name":"Moscow","latitude":55.7522,"longitude":37.6156},
{"fingerprint":"13F4CEA0E7BAE71A30252B363F995D6F283DDAD1","country":"de","latitude":51.0,"longitude":9.0},
{"fingerprint":"B8EE3CE0720FC9BD99332613955CE70E317ED9A7","country":"de","city_name":"Pfungstadt","latitude":49.8064,"longitude":8.6069},
{"fingerprint":"48BAC3C7A968E0E08A2E0BC1824B4E3EDAAD69DD","country":"fr","city_name":"Toulouse","latitude":43.5995,"longitude":1.4332},
{"fingerprint":"675C1D5D779B231F7C7EB22C677A8B5E19A4D1CE","country":"ie","latitude":53.0,"longitude":-8.0},
{"fingerprint":"63A815C575981D2D34307D4F4C6D4E019BADCD04","country":"de","city_name":"Host","latitude":51.65,"longitude":6.1833},
{"fingerprint":"187050695C6B0ABE415008D0DDC6F49EDB23D369","country":"de","city_name":"Bielefeld","latitude":52.0284,"longitude":8.5759},
{"fingerprint":"92DCA77E16C5C55BCFEFBFCCAC8AB825F202ED80","country":"at","latitude":47.3333,"longitude":13.3333},
{"fingerprint":"0C4C80C436773F427892AEAA3CE01BB5ACBE6776","country":"pl","city_name":"Warzachewka Polska","latitude":52.5931,"longitude":19.0894},
{"fingerprint":"8DC66CEB7CA14F9EF73E323FA484E7BCCF990C61","country":"us","city_name":"Carlsbad","latitude":33.0958,"longitude":-117.2721},
{"fingerprint":"DB6AC6C1CBBBF2CDA565B554AAB3CBDE39741854","country":"de","latitude":51.0,"longitude":9.0},
{"fingerprint":"2CF51151CAD4FC08AAED17C9C455F57BA86B3CF8","country":"ca","city_name":"Calgary","latitude":51.0833,"longitude":-114.0833},
{"fingerprint":"69CD4BE0B81099E3640E38CCFF5976FD84CE5B5B","country":"us","city_name":"Austin","latitude":30.366,"longitude":-97.6437},
{"fingerprint":"74BF6F272CFCB47CCB054BD25596EFC43AAFB130","country":"us","city_name":"Los Angeles","latitude":34.053,"longitude":-118.2642},
{"fingerprint":"EB37B570FAF147DDB075046F235F788E49A1036A","country":"us","city_name":"Shelbyville","latitude":39.5239,"longitude":-85.7853},
{"fingerprint":"BF637E9DD12082FBA99DEC06E14A2E74BCF6186F","country":"fr","city_name":"Paris","latitude":48.8817,"longitude":2.3822},
{"fingerprint":"BB70DC8DAAD0AF99BF9B36402A3671D19E169C43","country":"de","latitude":51.0,"longitude":9.0},
{"fingerprint":"826AB4F151AAA015483B25E75A671E9F54CC642A","country":"ru","latitude":60.0,"longitude":100.0},
{"fingerprint":"7264C01C0798B163C295F403C4220A9C8B354B8B","country":"za","city_name":"Johannesburg","latitude":-26.2,"longitude":28.0833},
{"fingerprint":"63AFCD5345C5F74EEF377D907A168F4A49CF1B17","country":"us","city_name":"Wayne","latitude":40.0548,"longitude":-75.4083},
{"fingerprint":"D97E20FE8F445A7C8F1E9556B1E6AD9B00CD05B7","country":"ru","latitude":60.0,"longitude":100.0},
{"fingerprint":"0F1B683F0EF03D7A102FFB4ABEF57C276EA8D4FA","country":"fr","city_name":"Paris","latitude":48.8667,"longitude":2.3333},
{"fingerprint":"54E5DA786D31213C5AE231F58FAB79E758B30B6B","country":"de","city_name":"Eppelborn","latitude":49.4022,"longitude":6.9706},
{"fingerprint":"4807F34967BFF7F1809CD1F5BC6CB7AE327A0068","country":"ru","city_name":"Yekaterinburg","latitude":56.8519,"longitude":60.6122},
{"fingerprint":"227C01C9F5F94B11F9ECA2B65B289A83754BB923","country":"us","city_name":"Hillsborough","latitude":36.0755,"longitude":-79.0741},
{"fingerprint":"4926DF344F6F99A8B044A1FE7AA34092229085DB","country":"us","city_name":"Absecon","latitude":39.4899,"longitude":-74.4773},
{"fingerprint":"391155ACED86EB8E48137346DF3F18F4E7CE57AD","country":"ch","latitude":47.0,"longitude":8.0},
{"fingerprint":"993992BBD01E36D3ECF8BA0B802C158961BB257C","country":"jp","latitude":35.69,"longitude":139.69},
{"fingerprint":"3EDDD0B6FE6C021CE7994ABC5434407187840279","country":"fr","latitude":48.86,"longitude":2.35},
{"fingerprint":"79C316AF984EB02280F3355D99C7EFFFD7CFD8DC","country":"cz","latitude":49.75,"longitude":15.5},
{"fingerprint":"2C4488ECDE14563D25DA3D1A8B172C4E547F4CD8","country":"nl","city_name":"Den Helder","latitude":52.9561,"longitude":4.7594},
{"fingerprint":"92AE731B35B76A22F9C8C3E080A8E5821DA73505","country":"ru","latitude":60.0,"longitude":100.0},
{"fingerprint":"87B7ACFDC334DD62DFCD7A9A2FD7121D8846CA6B","country":"us","city_name":"Merrimack","latitude":42.8502,"longitude":-71.5155},
{"fingerprint":"B102CC1CC19D8D63EDAA7DE8D0EE2947B7F651A0","country":"de","city_name":"Host","latitude":51.65,"longitude":6.1833},
{"fingerprint":"8D13E4E935C890A85FD619BBB6C11434068767D0","country":"us","city_name":"Minneapolis","latitude":44.9128,"longitude":-93.3133},
{"fingerprint":"398A230DC9EE19098C2B95BB6F3E3974E8EDC7DA","country":"es","city_name":"Madrid","latitude":40.4086,"longitude":-3.6922},
{"fingerprint":"8D202C53C42FBC1FB7EEAA1139FF37F7643BC651","country":"lu","latitude":49.4958,"longitude":5.9806},
{"fingerprint":"B0BE3D3B7560F784C5F16586A10343DBDC98A6AE","country":"de","latitude":51.0,"longitude":9.0},
{"fingerprint":"F11CEEF32A7CBF71030C3E11A124ECB39EE30831","country":"us","city_name":"Norristown","latitude":40.1545,"longitude":-75.3809},
{"fingerprint":"E3323FA93DECF9E6763CA95F0EE24E71293316DA","country":"us","city_name":"Seattle","latitude":47.6062,"longitude":-122.3321},
{"fingerprint":"DEB3973F68B31140F733AF428CE3B86FAFD4CB2C","country":"us","latitude":38.0,"longitude":-97.0},
{"fingerprint":"FAE617A81A036171DD8E225A8D1558F9A573788E","country":"dk","city_name":"Fredericia","latitude":55.5758,"longitude":9.7617},
{"fingerprint":"EEA3BC1D809F02D9FC6D7D958B6BA444A24E491D","country":"us","city_name":"Urbana","latitude":40.1095,"longitude":-88.2123},
{"fingerprint":"6D098CA385A978196392B745D702BB3F1C7A9627","country":"nl","city_name":"Amsterdam","latitude":52.35,"longitude":4.9167},
{"fingerprint":"B295D964F424D41EEF06B25014171F30E7BF8D85","country":"us","city_name":"Country Club Hills","latitude":41.5577,"longitude":-87.7274},
{"fingerprint":"9DF58F5C57313D59BD2F949807C110AB0AEF95B0","country":"br","city_name":"S\u00C3\u00A3o Paulo","latitude":-23.4733,"longitude":-46.6658},
{"fingerprint":"20D5CA6EB35BE65A00A45FA2A80C711B4E80DAE2","country":"de","city_name":"Ludwigsburg","latitude":48.9,"longitude":9.1833},
{"fingerprint":"9D40F2B1AA5AACD66E479668E26BB6C3AC1A63F3","country":"se","city_name":"Taby","latitude":59.5,"longitude":18.05},
{"fingerprint":"4D6566AA9F033B1EBE6A5D41A817F5367F097F6E","country":"nl","latitude":52.5,"longitude":5.75},
{"fingerprint":"6114D40080D945700B24750FC999C1568245993F","country":"de","latitude":51.0,"longitude":9.0},
{"fingerprint":"7088B88193031D8A2E9AEFC1F7D44F67EDFDF339","country":"fr","city_name":"Longeville-en-Barrois","latitude":48.7424,"longitude":5.2091},
{"fingerprint":"340B3A80105BDCEA3A625F3DBBAAEC94D19EAFE7","country":"bg","city_name":"Sofia","latitude":42.6833,"longitude":23.3167},
{"fingerprint":"0103D336C4AA77141EF9491857DFC33DE71C99CD","country":"us","city_name":"Los Angeles","latitude":34.0523,"longitude":-118.3852},
{"fingerprint":"6871F682350BA931838C0EC1E4A23044DAE06A73","country":"gr","latitude":39.0,"longitude":22.0},
{"fingerprint":"32AD9BE239A42D4C1BC85DCFFEE6D1DB5D2A1119","country":"us","city_name":"Houston","latitude":29.6042,"longitude":-95.1124},
{"fingerprint":"869731B744B500A3AB833826E9A182B79503F9F6","country":"us","city_name":"San Gabriel","latitude":34.0891,"longitude":-118.0924},
{"fingerprint":"694A2E8BFDE4C1D8253ECA748134A4FD26C7DB13","country":"nl","latitude":52.5,"longitude":5.75},
{"fingerprint":"9F69B0694A30C249B04ABB21083A0D675F526B9B","country":"fr","city_name":"Paris","latitude":48.8667,"longitude":2.3333},
{"fingerprint":"A3105D991B63C4234EC4D381D871326222065096","country":"fr","city_name":"Vincennes","latitude":48.8486,"longitude":2.4377},
{"fingerprint":"437A743A033D2023ACB7448A6964F9F3B5DA3283","country":"at","city_name":"Innsbruck","latitude":47.2667,"longitude":11.4},
{"fingerprint":"E7E9B24BD3C5714936178BF70669BD6169339D0B","country":"us","city_name":"Belleville","latitude":38.52,"longitude":-89.984},
{"fingerprint":"66F325326B049FC27EF97D544D8257AF3085E872","country":"de","city_name":"Tamm","latitude":48.9167,"longitude":9.1167},
{"fingerprint":"A9FBC88876B81B7457786D85C475EA6B165DA99F","country":"de","city_name":"Nuremberg","latitude":49.4478,"longitude":11.0683},
{"fingerprint":"C17C45009BA945A819B985789C58F9F03C24BEDC","country":"pl","latitude":52.0,"longitude":20.0},
{"fingerprint":"BA9216B28931E6BC8B9A7350934B9F33AB8C801A","country":"be","city_name":"Brussels","latitude":50.8333,"longitude":4.3333},
{"fingerprint":"00FCFBC5770DC6B716D917C73A0DE722CCF2DFE5","country":"us","city_name":"New Haven","latitude":41.3081,"longitude":-72.9282},
{"fingerprint":"F5D16ADE85E5DA97A1A5146275ADC4AD15E53D13","country":"gb","city_name":"London","latitude":51.5142,"longitude":-0.0931},
{"fingerprint":"4E4C398FB1E97F841E61D27E6D234928D5E9CE10","country":"de","latitude":51.0,"longitude":9.0},
{"fingerprint":"6ED6A3406BB4465B91982C0E1A06D8364D500AD9","country":"kr","city_name":"Seoul","latitude":37.5985,"longitude":126.9783},
{"fingerprint":"81860716FB4918F7ED5E6092F192A3EC00EED32C","country":"de","city_name":"Hamburg","latitude":53.5628,"longitude":10.0264},
{"fingerprint":"97F0DD45D681C1CB94808C87128A8FCB16D33DD9","country":"de","city_name":"M\u00C3\u00B6nchengladbach","latitude":51.2249,"longitude":6.4838},
{"fingerprint":"9E71315C25314F21F00337D1A7A765BB3C085799","country":"de","city_name":"Duisburg","latitude":51.4333,"longitude":6.75},
{"fingerprint":"79390A5032B37640F4285E7990471A8BBBF8F790","country":"gb","latitude":51.5,"longitude":-0.13},
{"fingerprint":"4C8489284743A022EC86D1A820FC8B398F20C81C","country":"de","city_name":"Frankfurt am Main","latitude":50.1167,"longitude":8.6833},
{"fingerprint":"3F6D799478F7ECD6AF52864AA35072FD61F032FF","country":"de","latitude":51.0,"longitude":9.0},
{"fingerprint":"5CC55AF14792CE805CA486A2CA1EC25A4016474A","country":"de","latitude":51.0,"longitude":9.0},
{"fingerprint":"2A180C96F5DB246EB3C83D8C3FEFB7ADCE0B4ED4","country":"pl","city_name":"Kornik","latitude":52.2475,"longitude":17.0977},
{"fingerprint":"F89A01395B271E37AEC0D4F2EC8A3E1916B2B9FD","country":"us","city_name":"Los Angeles","latitude":34.053,"longitude":-118.2642},
{"fingerprint":"55166D38016BD6DB2657FD696664C05E02559F49","country":"nl","latitude":52.5,"longitude":5.75},
{"fingerprint":"F1D88569EC137EE7B5FCECB2626C70A5E7D37792","country":"ru","city_name":"Nizhny Novgorod","latitude":56.3269,"longitude":44.0075},
{"fingerprint":"537354C5FB2BE02C169ABE8F0C8054A4BE3CF713","country":"de","city_name":"Host","latitude":51.65,"longitude":6.1833},
{"fingerprint":"AA5453B98618360276B985286FE58023410E1713","country":"us","city_name":"Boise","latitude":43.5952,"longitude":-116.1954},
{"fingerprint":"DD0F442C284241B7DAF80A8FB275B9C26D2C7BAE","country":"gb","latitude":51.5,"longitude":-0.13},
{"fingerprint":"54EED9E2A550E33948663F212E99556DE43B33E4","country":"us","latitude":38.0,"longitude":-97.0},
{"fingerprint":"0DA45802AE77F1DF13683AA46088B942AAC9ACF8","country":"us","city_name":"Los Angeles","latitude":34.0522,"longitude":-118.2437},
{"fingerprint":"F744F0135ACB99BDFA7E9C8BEC24EC2EAC6529FD","country":"gb","city_name":"Carshalton","latitude":51.35,"longitude":-0.15},
{"fingerprint":"471DF72C502115791BE50BCEC42DF218DB837B6A","country":"nl","city_name":"Eindhoven","latitude":51.45,"longitude":5.4667},
{"fingerprint":"B01A897DB26AC6002039A4AE5E2580364B2955A0","country":"fr","latitude":48.86,"longitude":2.35},
{"fingerprint":"945E89F58B570C5FF4EC9EB2D773651D640ED0FD","country":"de","latitude":51.0,"longitude":9.0},
{"fingerprint":"08EA3119A00A694D08C33A77C89232C5D7CD41B2","country":"de","city_name":"Dortmund","latitude":51.5301,"longitude":7.5972},
{"fingerprint":"BD3EAB53F36548EDE049808CB22ADB2F157CB3E1","country":"si","latitude":46.0,"longitude":15.0},
{"fingerprint":"59F35FFD8AFD07924E6B9183B7017EB3B906ADB5","country":"us","city_name":"Decatur","latitude":33.749,"longitude":-84.2751},
{"fingerprint":"DFDF77630B8D517535C49164D4E4DA9F0FAF7042","country":"us","city_name":"Buford","latitude":34.1212,"longitude":-84.0259},
{"fingerprint":"57DEB9A151B7CF3E2297DEEC039E0424D278B7E0","country":"nl","latitude":52.5,"longitude":5.75},
{"fingerprint":"5B4BAC8D65947BE2A6BEFB129433C8C2E1E902E4","country":"jp","city_name":"Tokyo","latitude":35.685,"longitude":139.7514},
{"fingerprint":"1F00CEDCF4DFAC7EF0EB5F63BE1915EFAA19D20A","country":"de","latitude":51.0,"longitude":9.0},
{"fingerprint":"46D237AE1B0816FAE0794CD7F80258071A244959","country":"hu","latitude":47.0,"longitude":20.0},
{"fingerprint":"55878CCB4C98863C37BA8548EE9CB7B5699D1A02","country":"de","latitude":51.0,"longitude":9.0},
{"fingerprint":"575B40EF095A0F2B13C83F8485AFC56453817ABF","country":"nl","latitude":52.5,"longitude":5.75},
{"fingerprint":"B0D786FEF55EEC3E17FDD1F83A18C4BA51234EF3","country":"de","city_name":"Giengen an der Brenz","latitude":48.6167,"longitude":10.25},
{"fingerprint":"293C0231E9FFBF8C1255854B3C20715759D01F4A","country":"fr","latitude":48.86,"longitude":2.35},
{"fingerprint":"2B32C7B0A1189E55F2DD7DA6D1AA49BB8254E68E","country":"nl","latitude":52.5,"longitude":5.75},
{"fingerprint":"287038060CB9C80E3E4A9CCE38399D1E289D918D","country":"us","city_name":"Buffalo","latitude":42.9864,"longitude":-78.7279},
{"fingerprint":"7FBBE2B5F6AA3AFAEFD1C1095EC0CB29C9B362AF","country":"za","city_name":"Cape Town","latitude":-33.9258,"longitude":18.4232},
{"fingerprint":"9A97AB6D11EBFCEC80788642EA137B3A938F8611","country":"fr","latitude":48.86,"longitude":2.35},
{"fingerprint":"BDDEF952405FDE6B3A4AE8E5144A05F369F7DFA9","country":"us","city_name":"Absecon","latitude":39.4899,"longitude":-74.4773},
{"fingerprint":"BDF88E9639B8378FE307205A37E41E82436B9D06","country":"fi","city_name":"Helsinki","latitude":60.1756,"longitude":24.9342},
{"fingerprint":"574EC6BC19BBA3C1E9D678C8280A7393E393D7E4","country":"de","latitude":51.0,"longitude":9.0},
{"fingerprint":"8477211899017FDDEA5DD6BBD71E240362DB857F","country":"de","latitude":51.0,"longitude":9.0},
{"fingerprint":"4C7BF55B1BFF47993DFF995A2926C89C81E4F04A","country":"us","city_name":"Houston","latitude":29.7633,"longitude":-95.3633},
{"fingerprint":"2DF76346EBCE0D856BDD512AFD8B05B9031CFB8C","country":"us","city_name":"New York","latitude":40.6888,"longitude":-74.0203},
{"fingerprint":"83E6583A4B3CE1F02758B19C249D6C839C229716","country":"de","latitude":51.0,"longitude":9.0},
{"fingerprint":"1FC841137C1F4C525D869B908E007D1D35727EF2","country":"gb","latitude":51.5,"longitude":-0.13},
{"fingerprint":"B2B1546D9873ECC154CC1C76042DB91D9C04215E","country":"us","city_name":"Monroeville","latitude":40.4235,"longitude":-79.7588},
{"fingerprint":"11E00884D6A3282BABD4C83651AFF99E0C26F0E5","country":"de","latitude":51.0,"longitude":9.0},
{"fingerprint":"58B5F366D1078DD02694E9F44AF8C6811C5CCDBC","country":"us","latitude":38.0,"longitude":-97.0},
{"fingerprint":"036163E2A6D24366D9AC3F5E7091F2CC01D0CDBD","country":"dk","latitude":56.0,"longitude":10.0},
{"fingerprint":"43AF032EE73B4595B8E18037676704DA01212F01","country":"fr","city_name":"Strasbourg","latitude":48.6004,"longitude":7.7874},
{"fingerprint":"3A484AFC6E9BFC6BECAD36EEF17DDE10C72FA61D","country":"in","city_name":"Delhi","latitude":28.6667,"longitude":77.2167},
{"fingerprint":"B38D4FA96C85EC5B83208015407B7A83D6103F7F","country":"us","city_name":"San Antonio","latitude":29.4889,"longitude":-98.3987},
{"fingerprint":"8F99731722D0BF97D0933FA069122538DD2CEC67","country":"nl","latitude":52.5,"longitude":5.75},
{"fingerprint":"90AB7F334FAA68CA537D36CE3FE1108CAE85AE06","country":"us","city_name":"Saint Paul","latitude":44.9444,"longitude":-93.0933},
{"fingerprint":"C165F5A4181B0C5EAABAC0F6F3EF27769D3B5768","country":"fr","latitude":48.86,"longitude":2.35},
{"fingerprint":"E4A25F2FDC5787F4344B343D5594863151221675","country":"us","city_name":"Absecon","latitude":39.4899,"longitude":-74.4773},
{"fingerprint":"27AA5658ACB0A3DC6D9BC67D4807B7C9D4245691","country":"it","city_name":"Milan","latitude":45.4667,"longitude":9.2},
{"fingerprint":"0960214F6332237DFDCB36E4A21A7D731FC4D43D","country":"de","latitude":51.0,"longitude":9.0},
{"fingerprint":"D72CBDB368B8260F27AACE7C07FD63B2FF4F29BA","country":"ch","latitude":47.0,"longitude":8.0},
{"fingerprint":"54F0E9B193232684CA1CB677E392FF1BD88CDE74","country":"de","city_name":"Bonn","latitude":50.7431,"longitude":7.059},
{"fingerprint":"D093DF2402A2A25917BCB0B198CFBE65DC56B3E5","country":"us","city_name":"Phoenix","latitude":33.6748,"longitude":-111.9519},
{"fingerprint":"2B5C1E947E98FF115214DB1591CC752241129EFE","country":"de","city_name":"Ratingen","latitude":51.2984,"longitude":6.8585},
{"fingerprint":"00FE1689046F9E8D0BD50E830E10AD116B8CEBDA","country":"nl","latitude":52.5,"longitude":5.75},
{"fingerprint":"0AF3A3C52DBEAFA52D36CC733E4AAA76FFDF1859","country":"hk","city_name":"Kowloon","latitude":22.3167,"longitude":114.1833},
{"fingerprint":"DD152F3D270B873DD3D70FD668F77BAC0E452165","country":"de","latitude":51.0,"longitude":9.0},
{"fingerprint":"4E03B7003F2785CB6607A79EE7BE97DEA78756DB","country":"es","city_name":"Madrid","latitude":40.4,"longitude":-3.6833},
{"fingerprint":"7FFB68CBADE84BBB5033CF0986D9478AF5FE9E8D","country":"us","latitude":38.0,"longitude":-97.0},
{"fingerprint":"EA534B3667021277CADB1ED8D0BF866B7280E955","country":"de","latitude":51.0,"longitude":9.0},
{"fingerprint":"341F81C2124EA37CC99F0E2530FB735AD87DDB92","country":"de","city_name":"Wurmsham","latitude":48.35,"longitude":12.3333},
{"fingerprint":"C0EDB08D7540D1DD3CA69809ED17D979F51B66E3","country":"us","city_name":"Newark","latitude":40.7357,"longitude":-74.1724},
{"fingerprint":"54ED9A99DC4F519028C5933A53A396AE9B17E3B0","country":"de","latitude":51.0,"longitude":9.0},
{"fingerprint":"5E311095A9789DECF2A8751816CD45B195FD83C1","country":"us","city_name":"New York","latitude":40.7267,"longitude":-73.9981},
{"fingerprint":"A7EA9E0E0CA17A6AFEE944035AA19C5470C2B7E7","country":"de","city_name":"Berlin","latitude":52.5167,"longitude":13.4},
{"fingerprint":"0B36C40D425F5F81580391B989808E19A0E28583","country":"de","city_name":"Landshut","latitude":48.5333,"longitude":12.15},
{"fingerprint":"A8B8AD71D46D29FBE8F064C739689D493C978735","country":"us","latitude":38.0,"longitude":-97.0},
{"fingerprint":"0A4FC38E4DB91E63B83C41AE0A1C14F074443E25","country":"fr","city_name":"Limay","latitude":49.0219,"longitude":1.7133},
{"fingerprint":"C3560966ADBB099C1B55E27F188C30AFE30966EE","country":"nl","latitude":52.5,"longitude":5.75},
{"fingerprint":"D996061AB1C81F8A6E7B1A02C42815CF1E881427","country":"ca","city_name":"Edmonton","latitude":53.55,"longitude":-113.5},
{"fingerprint":"B52EF501C195AEBACE1DDC72FD9924C434DB24A3","country":"ru","city_name":"Moscow","latitude":55.7522,"longitude":37.6156},
{"fingerprint":"F6A4653EA5918B0D9DA5468790B919266A765241","country":"se","latitude":62.0,"longitude":15.0},
{"fingerprint":"08C1DC88AE53322D56BC6A8367483331F42ED9B3","country":"us","city_name":"New York","latitude":40.7267,"longitude":-73.9981},
{"fingerprint":"296813E076F6101FD5B9592C881DF7D925EF8D78","country":"dk","latitude":56.0,"longitude":10.0},
{"fingerprint":"5FEDF90791C4BB738101751E10E959ED7B39F7B6","country":"de","city_name":"Wendeburg","latitude":52.3333,"longitude":10.4},
{"fingerprint":"4138815F94CF0F94CE27E554500FD5A01401E630","country":"de","city_name":"Tannheim","latitude":48.0,"longitude":10.0833},
{"fingerprint":"BFDA571926559A13711AF7976A0F78F6548C37BD","country":"pl","city_name":"Warsaw","latitude":52.25,"longitude":21.0},
{"fingerprint":"AB59338B6D53AAC3529882F2FCEEAF7D5C30BE39","country":"us","city_name":"Natrona Heights","latitude":40.6374,"longitude":-79.7264},
{"fingerprint":"76FE9AEA6ABBC02037B50FEBE911D6D99F64D239","country":"de","latitude":51.0,"longitude":9.0},
{"fingerprint":"6FF72C9B5E391F84BE494AEA606C854DBA8069CC","country":"ca","city_name":"Lasalle","latitude":45.4473,"longitude":-73.6557},
{"fingerprint":"E9ABFD7599F6B1CD55EB6E55F633409E1A937C21","country":"dk","city_name":"Rodding","latitude":55.3657,"longitude":9.0632},
{"fingerprint":"DA703DF1EE9ECDF7A23DF1D7073CF2997A0684EC","country":"nl","latitude":52.5,"longitude":5.75},
{"fingerprint":"8D0D52BD75D91379B75CB4B50DA45C6A5EAC1D7D","country":"ch"},
{"fingerprint":"32B219823F77A95389984EB7993B6BF52D7E1941","country":"de","latitude":51.0,"longitude":9.0},
{"fingerprint":"F42BA443939626E0D71E5D4AC781249653F5049E","country":"us","city_name":"McKinney","latitude":33.1769,"longitude":-96.6985},
{"fingerprint":"713F59450A2C521CB8C35ACD49E27B0E402CF993","country":"de","latitude":51.0,"longitude":9.0},
{"fingerprint":"7C7CEAA14CFA8EAAF44C054912C554F3DC8AD1B7","country":"us","city_name":"Melbourne","latitude":28.1424,"longitude":-80.7108},
{"fingerprint":"FA3A0E65D17B487006C8ED0E1B062ED10D20EB02","country":"de","city_name":"Host","latitude":51.65,"longitude":6.1833},
{"fingerprint":"377653E94FCB62999987BF3427CE4EF38973337B","country":"de","city_name":"Kaiserslautern","latitude":49.4425,"longitude":7.7659},
{"fingerprint":"DBE057A094CCD1510F6EDE3ED8412C501D3A5B72","country":"us","city_name":"Cedar Knolls","latitude":40.8221,"longitude":-74.4564},
{"fingerprint":"00F12AB035D62C919A1F37C2A67144F17ACC9E75","country":"gb","city_name":"Maidenhead","latitude":51.5167,"longitude":-0.7},
{"fingerprint":"48887B7BD1A8A8B25DE82A1CF8F96F869B9DA7AD","country":"us","city_name":"Absecon","latitude":39.4899,"longitude":-74.4773},
{"fingerprint":"2D7FBA0AF6EBB43C71F645BCA12C1E5CC0394F80","country":"us","latitude":38.0,"longitude":-97.0},
{"fingerprint":"B71E859EEC28EEFD406D3880D11FF96D94756B4F","country":"us","city_name":"New York","latitude":40.7143,"longitude":-74.006},
{"fingerprint":"585FA13A3AF7C329616FEB1F8DBC110F1553EB6B","country":"sg","city_name":"Singapore","latitude":1.2931,"longitude":103.8558},
{"fingerprint":"D33E9C160A1CD556F0263D2CE8FA383BD781FEF1","country":"us","city_name":"Kansas City","latitude":39.0716,"longitude":-94.6289},
{"fingerprint":"175212A32F2FDF08C731E79B2B923C0D5A387909","country":"de","city_name":"Kassel","latitude":51.336,"longitude":9.4457},
{"fingerprint":"D5E697748BDE38FEFBF26C51513F0C4B004765FA","country":"ru","city_name":"Khabarovsk","latitude":48.4827,"longitude":135.0838},
{"fingerprint":"95B32375D0AC1CF6ABE3E1A8584DD5ADB3FACA60","country":"us","city_name":"Williston","latitude":44.4235,"longitude":-73.0854},
{"fingerprint":"B5319276116AC56D69FA0D8A3C3746B9350D629D","country":"ro","latitude":46.0,"longitude":25.0},
{"fingerprint":"D45ACC61414C639ADB6E9C29E160DD1E965D77F1","country":"fr","latitude":48.86,"longitude":2.35},
{"fingerprint":"764A51392ACA8567786E13215775A70439794160","country":"us","city_name":"New York","latitude":40.7267,"longitude":-73.9981},
{"fingerprint":"4DBA1903EDE57805EDCE999B8D56F4012CEDE681","country":"hu","city_name":"Budapest","latitude":47.5,"longitude":19.0833},
{"fingerprint":"13816FEEFBC1DE77EF5B57F2627020BABA20769D","country":"at","latitude":47.3333,"longitude":13.3333},
{"fingerprint":"5A15CB5E333466ADAF9E6D097064D4563C7836D7","country":"cz","latitude":49.75,"longitude":15.5},
{"fingerprint":"ED2D2CB72DE7D39DA02738CE0C65B7BE33EB10BB","country":"de","latitude":51.0,"longitude":9.0},
{"fingerprint":"30C9DC71E0BA1ADB892E9FC55809222CC7C05AC3","country":"us","city_name":"Redmond","latitude":47.6801,"longitude":-122.1206},
{"fingerprint":"208002A5858EA66F4C2B47967BA188A2902B9D58","country":"us","city_name":"Absecon","latitude":39.4899,"longitude":-74.4773},
{"fingerprint":"81FA8416D78F81F453C8272E661477C3D3015710","country":"fr","latitude":48.86,"longitude":2.35},
{"fingerprint":"8B3BE2AC34387564C5E41E86D08EF2EF08105301","country":"fr","city_name":"Ch\u00C3\u00A2tillon","latitude":48.8024,"longitude":2.2935},
{"fingerprint":"009D5D8CCA78E424D92030A053F77AD6A4073A44","country":"de","city_name":"Frankfurt am Main","latitude":50.1167,"longitude":8.6833},
{"fingerprint":"3EAAAB35932610411E24FA4317603CB5780B80BC","country":"ch","latitude":47.0,"longitude":8.0},
{"fingerprint":"7824044E595BF6DC5FA67DFC3DFD7BCF162A6FCE","country":"gb","city_name":"Chipping Norton","latitude":51.8667,"longitude":-1.5333},
{"fingerprint":"663B963D7AF12F82013C727CCC532973DE671D16","country":"se","city_name":"Gothenburg","latitude":57.7167,"longitude":11.9667},
{"fingerprint":"C644F1A3E86B751577C2E77EA17762306E55127E","country":"de","latitude":51.0,"longitude":9.0},
{"fingerprint":"73AB1555F0DA2E6D6B2AB2A603A8CB34F2981B3D","country":"de","latitude":51.0,"longitude":9.0},
{"fingerprint":"4C4C145D632DA31C20D4CE10829756F34C0D3EE8","country":"fr","latitude":48.86,"longitude":2.35},
{"fingerprint":"FF89E8901B433F2546F3E705B44918CA1F33F541","country":"de","city_name":"Dresden","latitude":51.0967,"longitude":13.736},
{"fingerprint":"20E333985564632647E4960B2EB66D3B51A23B73","country":"dk","city_name":"Almind","latitude":55.5649,"longitude":9.487},
{"fingerprint":"882882307426D0597D58B05F684D4BA0BF74E577","country":"se","city_name":"Varsta","latitude":59.25,"longitude":18.0833},
{"fingerprint":"9C2422CB2C8CD5AF0FC6CCE7947D4A7EB86F4C9B","country":"se","city_name":"Solna","latitude":59.3667,"longitude":18.0167},
{"fingerprint":"B0BA07E97774BCE2A65DAB612904ED6CA1FA97B6","country":"fr","city_name":"Paris","latitude":48.8667,"longitude":2.3333},
{"fingerprint":"E9DD16F3E2E95605A370FDDAE69611454D88AB5A","country":"br","latitude":-10.0,"longitude":-55.0},
{"fingerprint":"EAB807A5EA04D56965028889BF18BE40DB70D492","country":"de","city_name":"Frankfurt am Main","latitude":50.1167,"longitude":8.6833},
{"fingerprint":"71310F86183D63318EFE5037E336A9B50CE7926A","country":"us","city_name":"Seneca","latitude":34.613,"longitude":-82.9492},
{"fingerprint":"B973F7C0D561288951139646B4EB83AE2E2C2690","country":"se","latitude":62.0,"longitude":15.0},
{"fingerprint":"D8C1E05325C108D848057F42A881D511CFB12409","country":"de","latitude":51.0,"longitude":9.0},
{"fingerprint":"2FC06226AE152FBAB7620BB107CDEF0E70876A7B","country":"us","city_name":"Logan","latitude":41.6412,"longitude":-111.8966},
{"fingerprint":"C77856FA9CF8108986DB0A663F1DBBCB8DCF0FC8","country":"fr","latitude":48.86,"longitude":2.35},
{"fingerprint":"AFE2421EB99555DCB7681C79183EA0CC21E38955","country":"de","city_name":"Host","latitude":51.65,"longitude":6.1833},
{"fingerprint":"2A1D3B7D032920B13C0788448EEAA7E0F1DC826D","country":"nl","latitude":52.5,"longitude":5.75},
{"fingerprint":"8D1A618C523A8CC761B7253E96C6D19285C47029","country":"de","latitude":51.0,"longitude":9.0},
{"fingerprint":"CAC14F1F302C4760FD2A851353B4037A0E646950","country":"hk","city_name":"Causeway Bay","latitude":22.25,"longitude":114.1667},
{"fingerprint":"F4873B3EC3325B81DC36C7E38AD3A5ED12B2F339","country":"fr","latitude":48.86,"longitude":2.35},
{"fingerprint":"DC5E2202E0148A53379F68A04207E04FFA7B4B2D","country":"au","latitude":-27.0,"longitude":133.0},
{"fingerprint":"7EE0F63378B7D1EEFA79DCB523F00FA9C699A005","country":"us","city_name":"Providence","latitude":41.6929,"longitude":-111.8147},
{"fingerprint":"172043D6A51A68E2612A5DC3879BAEFEE0989B85","country":"de","latitude":51.0,"longitude":9.0},
{"fingerprint":"E4D1F25DFBE484208866BA4A1A958B73127CB0AD","country":"us","latitude":38.0,"longitude":-97.0},
{"fingerprint":"A322931917EF1659E167D978D8DB0D9F667063A5","country":"nl","latitude":52.5,"longitude":5.75},
{"fingerprint":"423CB62EB8DDB39487CADFA672812D1DC76A25C7","country":"us","city_name":"Absecon","latitude":39.4899,"longitude":-74.4773},
{"fingerprint":"B291F7A2CE5DCD65052D1167C149FAF7F845F5C0","country":"de","city_name":"Dinkelsb\u00C3\u00BChl","latitude":49.0667,"longitude":10.3256},
{"fingerprint":"E2A1500A28DF34A949B85C1780F99297F78F9232","country":"sk","city_name":"Bratislava","latitude":48.15,"longitude":17.1167},
{"fingerprint":"B69D45E2AC49A81E014425FF6E07C7435C9F89B0","country":"nl","latitude":52.5,"longitude":5.75},
{"fingerprint":"B8C016A92723F8B76C8A40AAE89A1BCFB062F123","country":"us","city_name":"Pearland","latitude":29.5447,"longitude":-95.337},
{"fingerprint":"6A97482F1B228AF847A8FE83C75F68902C2DCA4D","country":"se","latitude":62.0,"longitude":15.0},
{"fingerprint":"5A8120BE10F11ADBB432D7A854C4693B5B8A9ADC","country":"us","city_name":"Garland","latitude":32.8756,"longitude":-96.6482},
{"fingerprint":"342A1AC764D89248E66458C077CFF668D05FFF34","country":"fr","latitude":48.86,"longitude":2.35},
{"fingerprint":"896364B7996F5DFBA0E15D1A2E06D0B98B555DD6","country":"ro","latitude":46.0,"longitude":25.0},
{"fingerprint":"580075B70F4CBA0C6819819CC3CB7F4D5D06F0FD","country":"us","city_name":"Berkeley","latitude":37.8726,"longitude":-122.3044},
{"fingerprint":"76435FF3F5637864123D2CCF7E70399AABBD7E65","country":"sg","city_name":"Singapore","latitude":1.2931,"longitude":103.8558},
{"fingerprint":"483C1D9D30391084873273FADBFEEE0A1F41CB3B","country":"ru","latitude":60.0,"longitude":100.0},
{"fingerprint":"B16E8E199A93310F3E45E68CCFD472EA38362C15","country":"us","city_name":"DeWitt","latitude":42.8602,"longitude":-84.5941},
{"fingerprint":"A0261044B4B3658AC67747231E1C52A4EF8B324C","country":"de","city_name":"Cologne","latitude":50.9333,"longitude":6.95},
{"fingerprint":"A7BA7A3DEC286CBF76B695DD212953B54C968A96","country":"fr","latitude":48.86,"longitude":2.35},
{"fingerprint":"1AA2B0A56FF803E0C3EBF8D991703A112D094DE7","country":"fr","city_name":"L'Hermenault","latitude":46.5189,"longitude":-0.8991},
{"fingerprint":"D47FDE4A673319388C933D1B5F1093FC31FFA461","country":"de","city_name":"Stuttgart","latitude":48.8113,"longitude":9.1588},
{"fingerprint":"A16223DDC93CED67646F7B8FC5FA15AB93C8E19F","country":"us","city_name":"Rock Hill","latitude":34.8889,"longitude":-81.0237},
{"fingerprint":"81BC28735C58098591052099D5D068F0535AAE14","country":"ua","latitude":49.0,"longitude":32.0},
{"fingerprint":"3D7E274A87D9A89AF064C13D1EE4CA1F184F2600","country":"ch","latitude":47.0,"longitude":8.0},
{"fingerprint":"704386F528CD7C31F8A46664A543A8A1513C949D","country":"fr","latitude":48.86,"longitude":2.35},
{"fingerprint":"D020A2ABD6B7E0C4BF1FFF068D623C84AF567786","country":"de","city_name":"Berlin","latitude":52.5167,"longitude":13.4},
{"fingerprint":"1C1146BC315F7687625FD07439563EE821BF7B0E","country":"nl","city_name":"Amsterdam","latitude":52.35,"longitude":4.9167},
{"fingerprint":"A9C351BF9396A8339A8E74A06B4AE9808B7ABE18","country":"de","latitude":51.0,"longitude":9.0},
{"fingerprint":"333D722202EFF8764AFA364147F1CCD44FE21430","country":"de","latitude":51.0,"longitude":9.0},
{"fingerprint":"7B509D535D5151CA9544BAF0360931112F4CCA6F","country":"us","city_name":"Union City","latitude":40.7639,"longitude":-74.037},
{"fingerprint":"996CD6B08A413C648AF860A06497C64F93B65122","country":"us","city_name":"Manhattan","latitude":39.2483,"longitude":-96.6849},
{"fingerprint":"1A1038F51151282A69EB9A81C814DC6B8858670C","country":"us","city_name":"Buffalo","latitude":42.9864,"longitude":-78.7279},
{"fingerprint":"999C6C3962E80B80B2D8E1B0D6AFD268B7822FF5","country":"us","city_name":"Tracy","latitude":37.7375,"longitude":-121.4258},
{"fingerprint":"408F01CF2664BE815B1E54F0D61990C78E914FF6","country":"us","city_name":"Troy","latitude":38.9977,"longitude":-90.9846},
{"fingerprint":"4E769E32CEC2FC4DA0978D1D7E00C4FF93B085E1","country":"jp","latitude":35.69,"longitude":139.69},
{"fingerprint":"E6ABA68D6181E8A438E114326589456B2E2AC3B7","country":"ca","latitude":60.0,"longitude":-95.0},
{"fingerprint":"2C32C3D9083FFD412EB7030ABA56375B6BAC6D27","country":"be","city_name":"Brussels","latitude":50.8333,"longitude":4.3333},
{"fingerprint":"2066D0364428E985DB873789DD9F89FF297429C3","country":"at","latitude":47.3333,"longitude":13.3333},
{"fingerprint":"411ECB6BD9B17424AF556C1CAE24495E5A5003B6","country":"fr","city_name":"Lans-en-Vercors","latitude":45.1279,"longitude":5.5857},
{"fingerprint":"14190932B3387BE3565C4E58D49F7B6577981D4B","country":"at","latitude":47.3333,"longitude":13.3333},
{"fingerprint":"C727D170BB7E6842B0BF29190612263206E31A47","country":"se","city_name":"Falkenberg","latitude":56.8981,"longitude":12.5019},
{"fingerprint":"D580786F1D0B9BDB35E5442E37E5DCA4F0D0A448","country":"de","latitude":51.0,"longitude":9.0},
{"fingerprint":"5A682B4A2B261D5FBBC468C1E249D35A018271FF","country":"us","latitude":38.0,"longitude":-97.0},
{"fingerprint":"E1C9585C5FC26D14DE6723124494B23E11DE1DC1","country":"us","city_name":"Minneapolis","latitude":45.0102,"longitude":-93.3428},
{"fingerprint":"1A23CFB74ECEC4402E389ED113469F7710E1EDB0","country":"us","city_name":"Mill Valley","latitude":37.8959,"longitude":-122.5663},
{"fingerprint":"7B3697811D5D58434871E156A3F2E355311D3813","country":"de","latitude":51.0,"longitude":9.0},
{"fingerprint":"F0DA9C4BCF44192077F46B79EF3A73F6218FA4A6","country":"ru","city_name":"Krasnoyarsk","latitude":56.0184,"longitude":92.8672},
{"fingerprint":"5F35B8CF9BC3EB76B633D1BA9445B4D50933A259","country":"nl","latitude":52.5,"longitude":5.75},
{"fingerprint":"866EFB3B4319B676A2A1CE6AA940119403C471B6","country":"nl","latitude":52.5,"longitude":5.75},
{"fingerprint":"64D500C4D7F989ECD74B42ABB068818EF95525F3","country":"nl","latitude":52.5,"longitude":5.75},
{"fingerprint":"BB399E381139A2F59E85E6ED74A9D7C5560007A1","country":"us","city_name":"New York","latitude":40.7267,"longitude":-73.9981},
{"fingerprint":"1AE180250D80A692077EDA35CC8E7387A9FDF220","country":"us","city_name":"Newark","latitude":40.7357,"longitude":-74.1724},
{"fingerprint":"B620640F095955011452F60852194351C78B6AAA","country":"sg","latitude":1.3667,"longitude":103.8},
{"fingerprint":"2E6FE59D8A74A30D823FC51BF3EC7C734B42A97A","country":"de","city_name":"Mossingen","latitude":48.4091,"longitude":9.0552},
{"fingerprint":"890C4364EB00E9603A88BED9FF4F0DA07FA46786","country":"us","city_name":"Smarr","latitude":32.9854,"longitude":-83.8821},
{"fingerprint":"DBE4A4CDFDFA3A3A0976C0FC567D29E87A9160D8","country":"de","city_name":"Rechberghausen","latitude":48.7333,"longitude":9.6333},
{"fingerprint":"B6CE5A61786635C7DD08615BCEE05DF53DBAE099","country":"de","latitude":51.0,"longitude":9.0},
{"fingerprint":"9A286A15ED4FD7B2DE030EF93A9D7C1B7F2D434D","country":"jp","latitude":35.69,"longitude":139.69},
{"fingerprint":"622DB000CC34B92C91BD13B468766C8C375FE352","country":"us","city_name":"Absecon","latitude":39.4899,"longitude":-74.4773},
{"fingerprint":"92EBAFFFBDFB1117BD208753FEDDA577BD40B1F6","country":"us","city_name":"Los Angeles","latitude":34.053,"longitude":-118.2642},
{"fingerprint":"FEC3A12D10E449045A083779F4C2A428E2A4A944","country":"au","city_name":"Melbourne","latitude":-37.8139,"longitude":144.9634},
{"fingerprint":"66572F071155238058A56391EAB9F45176F64810","country":"de","city_name":"Bergkirchen","latitude":48.25,"longitude":11.3667},
{"fingerprint":"11CF4A39CB393CB8F6522A045C66CF8898CD618F","country":"us","city_name":"Seattle","latitude":47.6145,"longitude":-122.348},
{"fingerprint":"4EF28F0ACBA7DB83F532CF649DB13A00C2F9FDF2","country":"de","latitude":51.0,"longitude":9.0},
{"fingerprint":"27D0D46ABB0DA73E36CA806FDF51F9CD184277AA","country":"in","city_name":"New Delhi","latitude":28.6,"longitude":77.2},
{"fingerprint":"A81371D3B96A05548ABE82D34E35AA68642CE9FB","country":"de","city_name":"Berlin","latitude":52.5167,"longitude":13.4},
{"fingerprint":"5A20C87AA78D0531586F53CADA89D664E3DF32D8","country":"us","city_name":"Marietta","latitude":34.0247,"longitude":-84.5033},
{"fingerprint":"E3F47DE5EA6115C0132B2F479F796319CA80CB8D","country":"de","latitude":51.0,"longitude":9.0},
{"fingerprint":"1ED4CE6C3631B240FEDD293CF65ED773689E90DA","country":"dk","city_name":"Stenlose","latitude":55.7677,"longitude":12.196},
{"fingerprint":"970D268C7969189653932D9AE451B0545850E717","country":"nl","city_name":"Amsterdam","latitude":52.35,"longitude":4.9167},
{"fingerprint":"3B2757383632D8C20B5E02DB55FEFF6198C8FEF5","country":"fr","latitude":48.86,"longitude":2.35},
{"fingerprint":"D71B1CA1C9DC7E8CA64158E106AD770A21160FEE","country":"fr","latitude":48.86,"longitude":2.35},
{"fingerprint":"5F716AC094488B69D7DB0C7F0B08257227623901","country":"us","city_name":"Fort Worth","latitude":32.6821,"longitude":-97.3312},
{"fingerprint":"F7255CA8500D3B1BB902F9CBA597D3D2B899C860","country":"de","latitude":51.0,"longitude":9.0},
{"fingerprint":"F65E0196C94DFFF48AFBF2F5F9E3E19AAE583FD0","country":"lu","latitude":49.75,"longitude":6.1667},
{"fingerprint":"0B14CECBD9BA1B1A91DFF7512C498419E8215359","country":"lv","latitude":57.0,"longitude":25.0},
{"fingerprint":"CC78B1F140C9238DD5D532371149F1B7BC757C2C","country":"de","latitude":51.0,"longitude":9.0},
{"fingerprint":"97079CBCA8F6D3F42A7A2E68A656A48CB7FF07C3","country":"de","latitude":51.0,"longitude":9.0},
{"fingerprint":"211393E3749D7520E441EDB92E2E53E1526F35E8","country":"us","city_name":"Prospect","latitude":38.3772,"longitude":-85.5823},
{"fingerprint":"3592DA1A10FA001D2DFE4E10F7D9FA8B1CDECF8F","country":"us","city_name":"Lincoln","latitude":40.8,"longitude":-96.667},
{"fingerprint":"DF715177F17D359F5FC2F1AA398C68FAB24D3E63","country":"ru","latitude":60.0,"longitude":100.0},
{"fingerprint":"EA9CE7B4A3BC2393EB724B5BE7E3B58A9F3A6270","country":"fr","city_name":"Chalon-sur-Sa\u00C3\u00B4ne","latitude":46.7888,"longitude":4.8488},
{"fingerprint":"86057B3F52827B34289966C08B28596FACCE364D","country":"us","city_name":"Pasadena","latitude":33.7866,"longitude":-118.2987},
{"fingerprint":"07EEA5D5850684BFB1FE89CE742170F75EE1AAC2","country":"fr","latitude":48.86,"longitude":2.35},
{"fingerprint":"8C8F793AD35DE91D83452E336229AEFC916DC3E5","country":"us","city_name":"Pekin","latitude":40.5494,"longitude":-89.6252},
{"fingerprint":"17732866AF67A4716E0876E5F5845C0BE97627DB","country":"de","latitude":51.0,"longitude":9.0},
{"fingerprint":"7E39B9998E7447969C678A75CED2B694A56D08F9","country":"gb","city_name":"Carterton","latitude":51.8136,"longitude":-1.7063},
{"fingerprint":"AA666DAFB431A8B3120BFDE29E4FD4C69EC88ACD","country":"no","city_name":"Oslo","latitude":59.9167,"longitude":10.75},
{"fingerprint":"343E7A320F2AC1C098940CC534A6D7715B09A40A","country":"us","city_name":"Dallas","latitude":32.7825,"longitude":-96.8207},
{"fingerprint":"21F84E3EC92BA954307C28A8B302F52F55E5A54D","country":"us","city_name":"Absecon","latitude":39.4899,"longitude":-74.4773},
{"fingerprint":"B4B70C9E62C13BF04260032B908ABF40E399AFE8","country":"us","city_name":"Reno","latitude":39.4907,"longitude":-119.9028},
{"fingerprint":"827BF0F1E52B82D69B3CE3DFEE1F1FE3A11042FD","country":"us","city_name":"San Diego","latitude":32.8183,"longitude":-117.1966},
{"fingerprint":"993569D25C82A7FE2D5CD9ABD94A3E2FD8B15937","country":"ru","city_name":"Kaliningrad","latitude":54.7065,"longitude":20.511},
{"fingerprint":"862CDFAA604FE374F8A2D373F383012FA6A766A9","country":"in","city_name":"Thiruvananthapuram","latitude":8.5069,"longitude":76.9569},
{"fingerprint":"8B3A6D9529A10E118B9B3C20116083A2F234A51D","country":"fr","latitude":48.86,"longitude":2.35},
{"fingerprint":"B13C5547C094CFAF778583A0136710C4875B45E8","country":"nl","latitude":52.5,"longitude":5.75},
{"fingerprint":"DCBA0E3C7591E953C4EE64034D7F841FEB50BFD9","country":"lt","latitude":56.0,"longitude":24.0},
{"fingerprint":"0DF6B76F92ABBAD09DFEF4F2E3748C9AD75FE12C","country":"nl","latitude":52.5,"longitude":5.75},
{"fingerprint":"880E354D42AB33CC1D9659BC243E3CB9B6AE86BB","country":"ru","latitude":60.0,"longitude":100.0},
{"fingerprint":"6CD3F6CC1976531C269DA4A8B305F93A8E77EAC2","country":"us","city_name":"Katy","latitude":29.7397,"longitude":-95.8302},
{"fingerprint":"4556644503809A8EC47252581C6ABD887DD1C713","country":"us","city_name":"Boise","latitude":43.5469,"longitude":-116.2913},
{"fingerprint":"1080D9BF60928F38ED131AAB3E630C18F7C863A9","country":"be","city_name":"Brussels","latitude":50.8333,"longitude":4.3333},
{"fingerprint":"32018FDE60DA9BC4816A46C925CB4C7888C160A9","country":"ca","city_name":"Vancouver","latitude":49.2658,"longitude":-123.1151},
{"fingerprint":"1D119EA0008A977A07378BE8425B871113A36495","country":"de","latitude":51.0,"longitude":9.0},
{"fingerprint":"0522B7D9FBDFA6FDA81DC6B12A8FA0BA1F7084B4","country":"se","city_name":"Gothenburg","latitude":57.7167,"longitude":11.9667},
{"fingerprint":"07044A4B08FDE7320D35E245F130B537243607EB","country":"de","city_name":"Sindelfingen","latitude":48.7233,"longitude":9.0077},
{"fingerprint":"66BB51750C93B50B37D99B5FB896372FFE320FB5","country":"ru","latitude":60.0,"longitude":100.0},
{"fingerprint":"71E7500AB1BE54C48A39A86BFB84EEE239C06A15","country":"us","latitude":38.0,"longitude":-97.0},
{"fingerprint":"D396C752CE09D293EA9353836C4F46647A015D29","country":"de","city_name":"Nachrodt-Wiblingwerde","latitude":51.3333,"longitude":7.65},
{"fingerprint":"31347866CDD8BB3EAA79642F49891E2C3F64D386","country":"us","city_name":"Dallas","latitude":32.8148,"longitude":-96.8705},
{"fingerprint":"DF7E420A9DC836F40E0787C6E9F5E9FC7EB4DCB2","country":"no","city_name":"Vestby","latitude":59.6,"longitude":10.75},
{"fingerprint":"9123123A8EBE4E88307C5B9E638417AA9041C972","country":"us","latitude":38.0,"longitude":-97.0},
{"fingerprint":"9972422A370B82C98BA44A428358B592E4AE3E65","country":"fr","city_name":"Paris","latitude":48.8667,"longitude":2.3333},
{"fingerprint":"CB32409255A1D9E651B456356979C6624B9A58DC","country":"us","city_name":"Los Angeles","latitude":34.0438,"longitude":-118.2512},
{"fingerprint":"40F32747DA9C12CF59B7CAF2EA0FA918528C993B","country":"ch","latitude":47.0,"longitude":8.0},
{"fingerprint":"DD6AFF3D19B52995E96AA00E4B82B95778095C0C","country":"us","city_name":"New York","latitude":40.7267,"longitude":-73.9981},
{"fingerprint":"FCB1C76892A2A28B69A7F5E4EA536947FA83A073","country":"cz","city_name":"Mesice","latitude":50.1965,"longitude":14.517},
{"fingerprint":"60CFB001A1D1AB7BE35F834C496BC5B1BD408583","country":"us","city_name":"Union","latitude":34.6932,"longitude":-81.6098},
{"fingerprint":"102C1B24166DED4F28B8EFB6BF0F1A7BD10F49C0","country":"us","city_name":"Absecon","latitude":39.4899,"longitude":-74.4773},
{"fingerprint":"62C1E299F4ECAAF5CA5C96EB2B640F0462414EEC","country":"ch","latitude":47.0,"longitude":8.0},
{"fingerprint":"4B5162094567D2D6F823AF1099134F0D054FE5FE","country":"us","city_name":"Forsyth","latitude":33.0325,"longitude":-83.8957},
{"fingerprint":"064860A14E1736C3EED2F0030AC4E7B03A79C0B9","country":"de","latitude":51.0,"longitude":9.0},
{"fingerprint":"455B15C45BE1170E2879C9DE0D0AE7A219976D0A","country":"fr","latitude":48.86,"longitude":2.35},
{"fingerprint":"829EDD0124FA52D8D2AE7C883D21C8BCCBC0504C","country":"fr","latitude":48.86,"longitude":2.35},
{"fingerprint":"0B2E6B5B109539099060A23C59CAF43DA083431E","country":"ru","city_name":"Moscow","latitude":55.7522,"longitude":37.6156},
{"fingerprint":"7BD6979D62F6E35CD0D115212913700A2C8A1E3C","country":"fr","latitude":48.86,"longitude":2.35},
{"fingerprint":"933B84D50387AAE44F0B605BD7880BFF6A2251F9","country":"fr","latitude":48.86,"longitude":2.35},
{"fingerprint":"337010806976993F1D9C962E6C3F94BB7BE80E04","country":"gb","latitude":51.5,"longitude":-0.13},
{"fingerprint":"97DC3CE62785C6FD3BA8554ACF9F5BCE1113827A","country":"us","city_name":"San Jose","latitude":37.2972,"longitude":-121.8868},
{"fingerprint":"F12AFDB3FEC184E76944579579F762F1142C7ED2","country":"cz","latitude":49.75,"longitude":15.5},
{"fingerprint":"20D8BCFE84FB87C077C4D82B5F264A6D040D9ED4","country":"nl","latitude":52.5,"longitude":5.75},
{"fingerprint":"B528636D364776B2D94B1E140609A3B88531C0BB","country":"md","city_name":"Chi\u00C5\u009Fin\u00C4\u0083u","latitude":47.0056,"longitude":28.8575},
{"fingerprint":"4C3AEC597CDA0F2C94DCEE071F0FE715B26D740E","country":"lu","latitude":49.75,"longitude":6.1667},
{"fingerprint":"CFE67D3BE7559F7FBA89E0E1ACC976694C4142B2","country":"de","latitude":51.0,"longitude":9.0},
{"fingerprint":"C4FA050D343E24F92F7EF4D6F1EA777CA2DFA2B9","country":"ru","city_name":"Moscow","latitude":55.7522,"longitude":37.6156},
{"fingerprint":"E459E02374D0385D2E2515CBBE707EA208966BCF","country":"fr","latitude":48.86,"longitude":2.35},
{"fingerprint":"A79525CD10625A24DAE28E49D4CE8928A8475F47","country":"at","latitude":47.3333,"longitude":13.3333},
{"fingerprint":"E4D71D5A9589D2F8BE6F169464D562EDAB25C958","country":"us","city_name":"Plano","latitude":33.0149,"longitude":-96.6192},
{"fingerprint":"B906A976FA6DAB40CD9680994A8BE267F35A6843","country":"se","city_name":"Torslanda","latitude":57.7833,"longitude":11.7167},
{"fingerprint":"0454A76BA87EEF6A44B36556A0EA8B4227865446","country":"fr","city_name":"Metz","latitude":49.1333,"longitude":6.1167},
{"fingerprint":"8CDFEB44AC3A740DE75B230C31B26E2AECD28FA4","country":"de","latitude":51.0,"longitude":9.0},
{"fingerprint":"CBF8572C4530EFDB02CD9E6CA9A8719E6AD26009","country":"us","city_name":"Lyles","latitude":35.8669,"longitude":-87.3081},
{"fingerprint":"1D63BB8607CFC469A974AF69C82BBFF20C81DF30","country":"us","city_name":"Buffalo","latitude":42.9864,"longitude":-78.7279},
{"fingerprint":"31F0AB667D20B5257D35F69ECB0CAFAF0CE92C32","country":"ru","latitude":60.0,"longitude":100.0},
{"fingerprint":"69DF3CDA1CDA460C17ECAD9D6F0C117A42384FA0","country":"ch","latitude":47.0,"longitude":8.0},
{"fingerprint":"E57298288118934AD7E8C919F905758D66F015AD","country":"nl","latitude":52.5,"longitude":5.75},
{"fingerprint":"AFEDE118D3AB49C8C26CFBDBFC6EB78C42C15E4B","country":"de","latitude":51.0,"longitude":9.0},
{"fingerprint":"1162E4816BAF53A3E656D646B15F271BEB71FB17","country":"ch","city_name":"Zurich","latitude":47.3667,"longitude":8.55},
{"fingerprint":"7893DFF7E4B3E6FC82469491EE598A17A3F70294","country":"ru","latitude":60.0,"longitude":100.0},
{"fingerprint":"1B169FEE0063B3CD9C649C2E0AF153C1088C2A59","country":"de","city_name":"Nuremberg","latitude":49.4478,"longitude":11.0683},
{"fingerprint":"26524E9427327F5540BF6843D84D660A74A9B8B5","country":"cz","city_name":"Prague","latitude":50.0833,"longitude":14.4667},
{"fingerprint":"403569E31D64CF542E8709462A18F2A6B3A8755F","country":"ru","city_name":"Ryazan","latitude":54.6269,"longitude":39.6916},
{"fingerprint":"D1B8AAA98C65F3DF7D8BB3AF881CAEB84A33D8EE","country":"de","latitude":51.0,"longitude":9.0},
{"fingerprint":"2A0F548E68183E249322BB3AC070D47CDBDC2F72","country":"us","city_name":"Buffalo","latitude":42.9864,"longitude":-78.7279},
{"fingerprint":"691385CD1091179A26B08DE1CD9161B7B1A95A14","country":"de","city_name":"Munich","latitude":48.15,"longitude":11.5833},
{"fingerprint":"258F6FAB93435B69E2828AC83E251075D7C9BA3F","country":"us","city_name":"San Francisco","latitude":37.7794,"longitude":-122.417},
{"fingerprint":"84BF956D3D9B000B35DE62E4424FBDDE00BBB941","country":"sg","city_name":"Singapore","latitude":1.2931,"longitude":103.8558},
{"fingerprint":"ED523A4DC73D5939CBC2B48AF25392A694CDEA6B","country":"tw","city_name":"Taipei","latitude":25.0392,"longitude":121.525},
{"fingerprint":"1A596D89B55DC9AE0BAB5ABF08484E303C4F63B8","country":"us","city_name":"Middletown","latitude":41.5497,"longitude":-72.6531},
{"fingerprint":"83A242B8CB93AB1455693B6AA2B34DF2C91B3B73","country":"de","city_name":"Ilsede","latitude":52.2617,"longitude":10.2116},
{"fingerprint":"62652D3DB1D8CD7873E01BB4089545BE0567DE80","country":"no","latitude":62.0,"longitude":10.0},
{"fingerprint":"F46408E2556C73750C4C071C815A857C42681B78","country":"ch","latitude":47.0,"longitude":8.0},
{"fingerprint":"BDAE126DA08B173B5FEFA962AB22D09DD380F9E7","country":"de","city_name":"Karlsruhe","latitude":49.0047,"longitude":8.3858},
{"fingerprint":"592D046938B91D0AD535CB4AD4C8EA88A7F7A06B","country":"de","latitude":51.0,"longitude":9.0},
{"fingerprint":"62C1D28BAF0231224C5CE98CEA374E94E0EBEC82","country":"jp","city_name":"Tokyo","latitude":35.685,"longitude":139.7514},
{"fingerprint":"63F5F96C4015D3FA3098F065BA2431E7EBD1BEC0","country":"us","city_name":"Buffalo","latitude":42.9864,"longitude":-78.7279},
{"fingerprint":"262A49E5883C3BA82B7CEBC3A20DD6EDC8D75CDC","country":"de","city_name":"Aichelberg","latitude":48.6333,"longitude":9.5667},
{"fingerprint":"0343953F8641B48DFB559E0543C063590EE53970","country":"us","city_name":"Bryan","latitude":30.6913,"longitude":-96.4887},
{"fingerprint":"681EF5800046137BCEFE45F78C32E4CF4DF186B2","country":"us","city_name":"Oklahoma City","latitude":35.5423,"longitude":-97.6189},
{"fingerprint":"28DDBA434AE6B49A1DC50E06990EF14E875E396E","country":"jp","city_name":"Sakura","latitude":35.7167,"longitude":140.2333},
{"fingerprint":"B1A88CFED023588C713E42B9ABA0AD2A294BECCF","country":"gr","latitude":39.0,"longitude":22.0},
{"fingerprint":"F5CC07AD410985CCD7051593BFE9F2C52A307077","country":"de","latitude":51.0,"longitude":9.0},
{"fingerprint":"B35908DAB591CF268A19E85BBCDE30C0428A4CFB","country":"jp","latitude":35.69,"longitude":139.69},
{"fingerprint":"7B4E619C81A06117B5F19F621755483BB45B00AD","country":"is","latitude":65.0,"longitude":-18.0},
{"fingerprint":"A926B07E4941BF7EB682F75B800D50FE2433F5D5","country":"gb","city_name":"Warwick","latitude":52.2833,"longitude":-1.5833},
{"fingerprint":"949DCB589B43B614ED08D65FC17DD6BA45C4281A","country":"fr","latitude":48.86,"longitude":2.35},
{"fingerprint":"729B1AAE209C56E29F796FAC69743C3F36530B39","country":"us","latitude":38.0,"longitude":-97.0},
{"fingerprint":"9877E80B57008EDBBD57837881E4780DD9EA7830","country":"de","city_name":"Herdecke","latitude":51.4121,"longitude":7.4313},
{"fingerprint":"AE4CF6A4DE0FF1EBEA008D81C7301EC73DF68B74","country":"us","city_name":"Grants Pass","latitude":42.5386,"longitude":-123.3478},
{"fingerprint":"783F02C33C69FC0906CB9476A98535FCE69F30C8","country":"us","city_name":"Canal Winchester","latitude":39.8251,"longitude":-82.7958},
{"fingerprint":"7C17AFD019AAA763D502249FB600143680B4BFCE","country":"us","city_name":"Los Angeles","latitude":34.053,"longitude":-118.2642},
{"fingerprint":"3AB0742BDE016039F6A80BBBB9608F58441B7DD1","country":"ru","latitude":60.0,"longitude":100.0},
{"fingerprint":"E3AE427DAFD53D5BB747083AE5451A5112467282","country":"de","city_name":"Griesheim","latitude":49.8666,"longitude":8.555},
{"fingerprint":"FAD5965BC8C1BB78D687F7A1A30BD61289BB4EC2","country":"us","city_name":"Salt Lake City","latitude":40.7079,"longitude":-111.8555},
{"fingerprint":"8E6C894C24E66DF4C9C8D85E4C480C18A7EEEAFC","country":"fr","city_name":"Bonnieres-sur-Seine","latitude":49.0352,"longitude":1.5783},
{"fingerprint":"BCF981C3F758F7B0D521C2860A440003FE406C25","country":"ua","city_name":"Mykolayiv","latitude":46.9659,"longitude":31.9974},
{"fingerprint":"E34E25D958D46DDE5092385B14117C9B301DC0E9","country":"ch","latitude":47.0,"longitude":8.0},
{"fingerprint":"8D997D582D6B4FE0E94CD739E490281270E92F9F","country":"nz","latitude":-41.0,"longitude":174.0},
{"fingerprint":"51B4EE8FA8B332A10008B083D1904FA5E4331109","country":"de","city_name":"Host","latitude":51.65,"longitude":6.1833},
{"fingerprint":"44EBBF17171FBC1E86C8DE9BA3C8F6E325036DDC","country":"us","city_name":"Seattle","latitude":47.6344,"longitude":-122.3422},
{"fingerprint":"007CDD3B97ED9B3878A7E6710C18115263D68CB2","country":"za","latitude":-29.0,"longitude":24.0},
{"fingerprint":"DD1964CA2371E084585987E322DF68AED6F20F4D","country":"at","city_name":"Feldkirch","latitude":47.2331,"longitude":9.6},
{"fingerprint":"97BCD9FCFFCB185CAD62C0CFA230C02D0C8313EA","country":"ua","latitude":49.0,"longitude":32.0},
{"fingerprint":"280861E343C55AEBF625C012E5FBFA74D9A8EA23","country":"ru","city_name":"Samara","latitude":53.1835,"longitude":50.1182},
{"fingerprint":"0C4A1BA401DF6C36522CBB2784F693CC72DE76BD","country":"us","city_name":"Buffalo","latitude":42.9864,"longitude":-78.7279},
{"fingerprint":"02EE9A8E6478E161C68D0C3B09413A02198E32BA","country":"fr","city_name":"Geveze","latitude":48.2193,"longitude":-1.7895},
{"fingerprint":"363316FCCDC5F61FAE2CB2D906FFE7186C33AB64","country":"us","city_name":"Tampa","latitude":27.9987,"longitude":-82.5156},
{"fingerprint":"8B27EBA5ACC6653587F9BA9BD331175885C1A11C","country":"us","city_name":"Dacula","latitude":33.9785,"longitude":-83.8811},
{"fingerprint":"CCFE3EE3EBE58E4CA680E7C80DCE7445FCE3C259","country":"us","city_name":"Absecon","latitude":39.4899,"longitude":-74.4773},
{"fingerprint":"DD8BD7307017407FCC36F8D04A688F74A0774C02","country":"se","latitude":62.0,"longitude":15.0},
{"fingerprint":"31D01A8CD3799E0CB6A56D8F149846A1B0D90283","country":"ua","latitude":49.0,"longitude":32.0},
{"fingerprint":"B676F267DC6AF6A6EB30C8C7CEE4C52F472B23CD","country":"de","latitude":51.0,"longitude":9.0},
{"fingerprint":"D21478AD247197B9D6901051C9C5F699C14C4A05","country":"jp","latitude":35.69,"longitude":139.69},
{"fingerprint":"C6F6B70AD9115C65B618B0AF3FD10B0432626CA9","country":"us","city_name":"Los Angeles","latitude":34.0438,"longitude":-118.2512},
{"fingerprint":"A6053CC157120E904B3F6420023AF410EB184829","country":"ru","city_name":"Elektrougli","latitude":55.7244,"longitude":38.2091},
{"fingerprint":"BF7B67C90F005C7EF61389E42B073BD40BE11B7B","country":"us","city_name":"Tempe","latitude":33.4357,"longitude":-111.9171},
{"fingerprint":"2707192E166C609B93CB3C9D9FF92E427512D3B1","country":"de","city_name":"Bergheim","latitude":50.9562,"longitude":6.635},
{"fingerprint":"54130F251C12FAF6957BE0FA7A539500121976EC","country":"pl","city_name":"Warsaw","latitude":52.25,"longitude":21.0},
{"fingerprint":"A9FB45E7C03769AD60CC2D4057BD2CCDB173C5CF","country":"de","latitude":51.0,"longitude":9.0},
{"fingerprint":"5DD658B974383941212E7D5D7B4DD0B08B7C98E2","country":"de","latitude":51.0,"longitude":9.0},
{"fingerprint":"CEBD8CD27A1D7B3ECBB2A095568AD0F0A1FC5D78","country":"de","latitude":51.0,"longitude":9.0},
{"fingerprint":"A0E92653BA07A4EAE084375E6088CCB8A48EFF8B","country":"fr","latitude":48.86,"longitude":2.35},
{"fingerprint":"C6597BABCCBBEF43816E8F4DAC16C00E9E49BC57","country":"us","city_name":"Southbury","latitude":41.4675,"longitude":-73.2406},
{"fingerprint":"0C05E72C5BCC9AC1A9DBC9754503828724263431","country":"my","latitude":2.5,"longitude":112.5},
{"fingerprint":"DDE9F93043341BDABA100CDEE5D8AAAB535ED66D","country":"de","city_name":"Frankfurt am Main","latitude":50.1167,"longitude":8.6833},
{"fingerprint":"7A9D270031F9FD617E0C5BCAB96ED0B928E548AB","country":"br","city_name":"Porto Alegre","latitude":-30.0333,"longitude":-51.2},
{"fingerprint":"7B8A19A3B50A447CE121C75BE73669C4C322B490","country":"de","latitude":51.0,"longitude":9.0},
{"fingerprint":"A63F8D838183CE830F5C47065401C8235837C11F","country":"cz","latitude":49.75,"longitude":15.5},
{"fingerprint":"B6FFDC2FE7A58BF59C3AD79B7FC969F42A6F418B","country":"us","city_name":"Newark","latitude":40.7357,"longitude":-74.1724},
{"fingerprint":"CCEF02AA454C0AB0FE1AC68304F6D8C4220C1912","country":"se","city_name":"Stockholm","latitude":59.3333,"longitude":18.05},
{"fingerprint":"82D2B12DCC30892264B53A0DCFBDF633EE35A494","country":"us","city_name":"Secaucus","latitude":40.7801,"longitude":-74.0633},
{"fingerprint":"ACEF7C473469C804DFBED8349D220044BD141A06","country":"gb","city_name":"London","latitude":51.5273,"longitude":-0.0882},
{"fingerprint":"16F430A0B6A851A537586ECECAFE0B4AA62ECF60","country":"de","city_name":"Michelstadt","latitude":49.6826,"longitude":9.0021},
{"fingerprint":"2F1CCEE99FD6AFB00A01C751B9C99226F9954CE8","country":"jp","latitude":35.69,"longitude":139.69},
{"fingerprint":"A96F10828F5D3BA42AC8927F036DEBD994EF04BF","country":"gb","latitude":51.5,"longitude":-0.13},
{"fingerprint":"AFB6F20275AC1E174DEDED6E1FC6A9C4768ED5F5","country":"us","city_name":"Detroit","latitude":42.3284,"longitude":-83.0554},
{"fingerprint":"F93BA494AD18A2A5C6EBF7EBFCB3B448CF7BCAA2","country":"be","latitude":50.8333,"longitude":4.0},
{"fingerprint":"2CE7DBA3ADCC2A3A8E36D897441C5E0374E74852","country":"nl","latitude":52.5,"longitude":5.75},
{"fingerprint":"09C5A1868E77812D20FB6A16836FD825A191E9F6","country":"bg","latitude":43.0,"longitude":25.0},
{"fingerprint":"72013637B598EAB9CB3D3E60CD5332F49DD79CCF","country":"ru","latitude":60.0,"longitude":100.0},
{"fingerprint":"5E8EB8551B81D5B945CBF7CA950BCCAF87869D76","country":"gb","latitude":51.5,"longitude":-0.13},
{"fingerprint":"9735D88B8345E57DFB07BE0DAEEBD217E9003E87","country":"us","city_name":" D.C.","latitude":38.9085,"longitude":-77.0177},
{"fingerprint":"CBC2712E691E4E075CF520C455C732EB7BF03E3E","country":"ca","city_name":"Montreal","latitude":45.5078,"longitude":-73.5804},
{"fingerprint":"C6B1B930032D01DC4AC367234EECD6BDACE13BD8","country":"de","latitude":51.0,"longitude":9.0},
{"fingerprint":"99B1E69B75BB7E11BA887EF2DF250763B578DAE9","country":"de","latitude":51.0,"longitude":9.0},
{"fingerprint":"FA30219D7C44951F676BE6B57236EA3AD3B7FE56","country":"de","city_name":"Bad Duben","latitude":51.6,"longitude":12.5833},
{"fingerprint":"720D255B6494216A2475D29AB9839802AA1481B8","country":"us","city_name":"Ashburn","latitude":39.0437,"longitude":-77.4875},
{"fingerprint":"D60F05CAB4E19C106B7A53F46EB02D2AD036FB4C","country":"nl","latitude":52.5,"longitude":5.75},
{"fingerprint":"12C33C1BD7C4C216AC5CA70CC3D11F0F2FA1AEC9","country":"us","city_name":"Asheville","latitude":35.5283,"longitude":-82.5225},
{"fingerprint":"7D84BF01ABD970387C91720D0D8CAACAFEDE7896","country":"ca","city_name":"Napanee","latitude":44.25,"longitude":-76.95},
{"fingerprint":"C1C4B741C2ADB902083E8AAF6447AF2DD242D0CD","country":"us","city_name":"Jersey City","latitude":40.7209,"longitude":-74.0468},
{"fingerprint":"04DDE5ECE1B48306946D83E4061C0AC8943D248C","country":"de","latitude":51.0,"longitude":9.0},
{"fingerprint":"88A5F51B1C87BC70E9958905E1AF85290BC5118F","country":"nl","city_name":"Amsterdam","latitude":52.35,"longitude":4.9167},
{"fingerprint":"384B51C97D98F34893B37107E74C70295D2C10E7","country":"us","city_name":"New York","latitude":40.7267,"longitude":-73.9981},
{"fingerprint":"F52E99E97B8332ABFB3BD1A0E616B9B40A5B92C3","country":"mx","city_name":"Mexico City","latitude":19.4342,"longitude":-99.1386},
{"fingerprint":"8746507370F71934A4709E91BF811EC099CF93AD","country":"nl","city_name":"Amsterdam","latitude":52.35,"longitude":4.9167},
{"fingerprint":"77619BAA0426348888B72F72FBA111B7E480F90E","country":"ru","latitude":60.0,"longitude":100.0},
{"fingerprint":"5C57A83CF617EA4BCCDB00E6B4CD37C3B4B06077","country":"us","city_name":"Buffalo","latitude":42.9864,"longitude":-78.7279},
{"fingerprint":"FE40B763AF53C04A8C74DA8C964D3B203163BB1D","country":"de","latitude":51.0,"longitude":9.0},
{"fingerprint":"70F552BD59E7EF445F271DBFFBB50B32C529FF9E","country":"ru","latitude":60.0,"longitude":100.0},
{"fingerprint":"9CCEAA05AB51175253D6A9A186B83ECCDA314980","country":"cz","latitude":49.75,"longitude":15.5},
{"fingerprint":"F24979F37C37C9DA193EDADDFB305431CF13C384","country":"nl","latitude":52.5,"longitude":5.75},
{"fingerprint":"3F0AC609D15C0168EB9E95DF2F820F69768FADD8","country":"us","city_name":"New York","latitude":40.7421,"longitude":-74.0018},
{"fingerprint":"EC01CB4766BADC1611678555CE793F2A7EB2D723","country":"de","latitude":51.0,"longitude":9.0},
{"fingerprint":"78C7C299DB4C4BD119A22B87B57D5AF5F3741A79","country":"us","city_name":"Pittsburgh","latitude":40.4439,"longitude":-79.9561},
{"fingerprint":"9D729E04CD3BF8630CAE33DB463912B35E7DEA04","country":"us","city_name":"Prudenville","latitude":44.2475,"longitude":-84.6427},
{"fingerprint":"6B7191639E179965FD694612C9B2C8FB4267B27D","country":"ro","latitude":46.0,"longitude":25.0},
{"fingerprint":"48A48B640532E3419C3B88D05B02B8CA3292FF3F","country":"gb","city_name":"Southsea","latitude":50.7911,"longitude":-1.0703},
{"fingerprint":"CB96F61A60B8AA06D3D4E90F0E4A5716AA06125B","country":"de","latitude":51.0,"longitude":9.0},
{"fingerprint":"FF06E7A068A1CA66CE593DCE85E2477807C48302","country":"de","latitude":51.0,"longitude":9.0},
{"fingerprint":"BD3A7610CB237696E7ACC5FA818A574261957C57","country":"us","city_name":"New Braunfels","latitude":29.7044,"longitude":-98.0742},
{"fingerprint":"24FB8281D98B624523AF965D761635CEE53F26F9","country":"ru","latitude":60.0,"longitude":100.0},
{"fingerprint":"99B3163E291E7049F60E9F5DFD9DF989EB5610FC","country":"il","latitude":31.5,"longitude":34.75},
{"fingerprint":"1C6AF2037C4DAFE906727128668AB1AEA52D0564","country":"de","city_name":"Appen","latitude":53.65,"longitude":9.7333},
{"fingerprint":"E3E6A7DE02CAA12AC57128844C04595CD44D1B54","country":"gb","latitude":51.5,"longitude":-0.13},
{"fingerprint":"EE972F9A94B5444DBFE84E2FA077E949D3020ED4","country":"us","city_name":"Brookline","latitude":42.3431,"longitude":-71.123},
{"fingerprint":"B7EC0C02D7D9F1E31B0C251A6B058880778A0CD1","country":"nl","city_name":"Amsterdam","latitude":52.35,"longitude":4.9167},
{"fingerprint":"5172B64C7091C733538A9E36162C3FA46BE06124","country":"ru","latitude":60.0,"longitude":100.0},
{"fingerprint":"5FBC1B362C8257E2EF1CB4EBC4B28810E1D4F606","country":"ch","latitude":47.0,"longitude":8.0},
{"fingerprint":"B4D238ABE133D34D0860B95DDDA2D730DBB36597","country":"ru","latitude":60.0,"longitude":100.0},
{"fingerprint":"D49D576E6545CE45C0A66A846B782C19EECD634F","country":"us","latitude":38.0,"longitude":-97.0},
{"fingerprint":"D8AD2096F4C4F565478D88342D2645CD89B374B9","country":"de","latitude":51.0,"longitude":9.0},
{"fingerprint":"D7BC08550D0B0EA6A3DB8555D166C1E2726C5EE2","country":"de","city_name":"Berlin","latitude":52.5167,"longitude":13.4},
{"fingerprint":"1B4774F611975BCB8E2C9E966BF560A00913B26E","country":"de","latitude":51.0,"longitude":9.0},
{"fingerprint":"AE52E1FDFFA534C9436B742351994FB6BFF02938","country":"nl","city_name":"Amsterdam","latitude":52.35,"longitude":4.9167},
{"fingerprint":"6B2CF82E370C696FCA7037DE301E8A635E0CF06D","country":"ua","city_name":"Kyiv","latitude":50.4333,"longitude":30.5167},
{"fingerprint":"3A2B8FDEE1349729F09F7D4BA521EF26D16E08E4","country":"us","latitude":38.0,"longitude":-97.0},
{"fingerprint":"DD565AE80B04A2384F9A6A3275B38577A4560C3D","country":"lu","latitude":49.75,"longitude":6.1667},
{"fingerprint":"5CCDC37C00CFEB0D022B0F4DFD7D177DCED399F3","country":"au","latitude":-27.0,"longitude":133.0},
{"fingerprint":"01A0FC0A1A118E1D7B178E239654080D5CFE63F8","country":"no","latitude":62.0,"longitude":10.0},
{"fingerprint":"84D80908127B8B0BC786C198D7C6974405ED7F75","country":"nl","latitude":52.5,"longitude":5.75},
{"fingerprint":"E690103F3E388A3D9C125936F1AE5C64C1A26D51","country":"ca","city_name":"Edmonton","latitude":53.4967,"longitude":-113.6162},
{"fingerprint":"E940BC225869EA963A5D7EFE0558B608A73A80B5","country":"es","city_name":"Las Matas","latitude":40.5578,"longitude":-3.8917},
{"fingerprint":"EE10B29C85CDC5EED2F4D019CB7A69EA93634D5E","country":"us","city_name":"Los Angeles","latitude":34.053,"longitude":-118.2642},
{"fingerprint":"EAC69272A1270C5E30293D31674C015AB0DF2D75","country":"de","latitude":51.0,"longitude":9.0},
{"fingerprint":"B5CF2D7A100C75444756D888137AF2C232736037","country":"us","city_name":"Los Angeles","latitude":34.0438,"longitude":-118.2512},
{"fingerprint":"B0BAA60F540FCBFBDF21B7A9AF65AD5B43E6916E","country":"ru","latitude":60.0,"longitude":100.0},
{"fingerprint":"5F341AD0EA2A1931E8AD662ED4A69BFD5666EE26","country":"us","latitude":38.0,"longitude":-97.0},
{"fingerprint":"94A9DADB65CDEA854886CE5C1594E51C14348407","country":"us","city_name":"Denver","latitude":39.7525,"longitude":-104.9995},
{"fingerprint":"3078E81181F2F434D6CE20FE6E4253D13FCEA570","country":"se","latitude":62.0,"longitude":15.0},
{"fingerprint":"2896560A3D3A5E9687009F42C2320AB1BAE4EE25","country":"de","city_name":"Bremerhaven","latitude":53.5286,"longitude":8.5907},
{"fingerprint":"677D433B52DA358B8DA944B3A6CBE891ABFEE4F6","country":"us","latitude":38.0,"longitude":-97.0},
{"fingerprint":"F3B6C22C592F5B6998939DB252938412571A3319","country":"fr","latitude":48.86,"longitude":2.35},
{"fingerprint":"2778C2B8EE3C92F12DC7DEF9648450CB3ED5FF44","country":"us","city_name":"Chicago","latitude":41.8776,"longitude":-87.6272},
{"fingerprint":"BA072280163AF354F243C6B3D7ABF5F0332F14B9","country":"us","city_name":"Buffalo","latitude":42.9864,"longitude":-78.7279},
{"fingerprint":"2136D9ED14AA2CE180AB75653BF27C6959AE242E","country":"nl","latitude":52.5,"longitude":5.75},
{"fingerprint":"9BA84E8C90083676F86C7427C8D105925F13716C","country":"fr","latitude":48.86,"longitude":2.35},
{"fingerprint":"77753D7124C4B097B8EB70D5B8E76B202F456B86","country":"de","latitude":51.0,"longitude":9.0},
{"fingerprint":"A40E1C039224FA8072C7C84F729236FD738C69DA","country":"at","latitude":47.3333,"longitude":13.3333},
{"fingerprint":"CAC3F8905AC73A73A8054DC7481757C5440A6414","country":"de","city_name":"Berlin","latitude":52.5167,"longitude":13.4},
{"fingerprint":"22BFCF91EA3A2C89D72875F64DF4845648C27D9B","country":"pl","city_name":"Warsaw","latitude":52.25,"longitude":21.0},
{"fingerprint":"6755E14AED01DFA76B2F5BD2546281A1A3EB83DA","country":"us","city_name":"Cambridge","latitude":42.3646,"longitude":-71.1028},
{"fingerprint":"83B79114431B3A229A22F05F1E5DD58C887A7DAE","country":"ru","city_name":"Moscow","latitude":55.7522,"longitude":37.6156},
{"fingerprint":"A28EDAE34805B50AD057A42FBB2E2B16045F408B","country":"cz","latitude":49.75,"longitude":15.5},
{"fingerprint":"AD080044241CC95A6ADDE5EDD13A89E165953E09","country":"fr","city_name":"Paris","latitude":48.8667,"longitude":2.3333},
{"fingerprint":"AB87BB2F5A2EC68E8F3E0DCB460469D1BE223856","country":"de","city_name":"Erfurt","latitude":51.021,"longitude":11.0353},
{"fingerprint":"6101D1675BD68BA975A916015ACDA1FC594C7DCD","country":"au","city_name":"Bunbury","latitude":-33.3271,"longitude":115.6414},
{"fingerprint":"697A5FB67D96DB924E146EE153F28FF7C119A6FB","country":"ar","city_name":"Buenos Aires","latitude":-34.5875,"longitude":-58.6725},
{"fingerprint":"77088C67DF68165AE9383A72F2D7D96585B3DF9D","country":"de","city_name":"Hanover","latitude":52.3667,"longitude":9.7167},
{"fingerprint":"9C9D6A9E2EE643B75B9C46B06CD77996F4B23E00","country":"se","city_name":"Nacka","latitude":59.3,"longitude":18.1667},
{"fingerprint":"54D57AD74149DDB1FA733645041C6865619F32A4","country":"nl","latitude":52.5,"longitude":5.75},
{"fingerprint":"273C58C7764D2718A11FB7BA2205FC147948D7FE","country":"de","latitude":51.0,"longitude":9.0},
{"fingerprint":"D40BAFC27FA2E9A5158C7EA6AE4D6889076CDEED","country":"jp","latitude":35.69,"longitude":139.69},
{"fingerprint":"9F2026DDE7D85BE6530A56DFF92957C323174019","country":"us","city_name":"Winthrop","latitude":42.3678,"longitude":-70.969},
{"fingerprint":"FB0EC5DA48A3D7BCA8AF5D5D60C892B8A7C20F81","country":"se","city_name":"Nora","latitude":59.5167,"longitude":15.0333},
{"fingerprint":"AA28A8ADBC3C7F2C083B5F173BE02F65C4C5722A","country":"us","city_name":"Albuquerque","latitude":35.0845,"longitude":-106.6511},
{"fingerprint":"0237977BD10F81B22219560E5BC16A99ECDC4B6E","country":"us","city_name":"Erie","latitude":40.0657,"longitude":-105.0133},
{"fingerprint":"8BE461E4ADEB59D1C12B18B301D8B6989C9F3099","country":"us","city_name":"Chandler","latitude":33.2769,"longitude":-111.9444},
{"fingerprint":"50DA3594279E7E3ED0E820EAFB51475BF009E3BD","country":"es","latitude":40.0,"longitude":-4.0},
{"fingerprint":"949D996A977B086241DA09F26AEAB340980C449F","country":"nl","latitude":52.5,"longitude":5.75},
{"fingerprint":"5052495288A042DB515116CDC659A1C84458A3B3","country":"ca","city_name":"Toronto","latitude":43.6492,"longitude":-79.3823},
{"fingerprint":"A2C2F9B652D6CFC6E0E329ED4577797CC9AD6BAB","country":"nl","latitude":52.5,"longitude":5.75},
{"fingerprint":"E007E57D27B4A68F962D04F0C4E5E58AC5B44192","country":"nl","city_name":"Amsterdam","latitude":52.35,"longitude":4.9167},
{"fingerprint":"62607595708786ED862D08D6D16F1ADE2D5EF662","country":"us","latitude":33.4259,"longitude":-88.8303},
{"fingerprint":"9D770EE29EBF154127AC58A8C1696A8D8D36E647","country":"us","latitude":38.0,"longitude":-97.0},
{"fingerprint":"02B85C94BAF4AA50B5BCFAE06595C1AFFE3ADB7E","country":"hr","latitude":45.1667,"longitude":15.5},
{"fingerprint":"1A3B88D2598F4946C8E3EFFAF40FA2394184A23E","country":"ru","city_name":"Saint-Petersburg","latitude":59.8944,"longitude":30.2642},
{"fingerprint":"03B42E99E9E6DE582B9600B99FAF497EB7752447","country":"dk","city_name":"Ballerup","latitude":55.7198,"longitude":12.352},
{"fingerprint":"DE67CA5B8C0838F57BC72558C89A76AC867B4A68","country":"is","latitude":65.0,"longitude":-18.0},
{"fingerprint":"49095052C6668FB6BB9A2C9CEDB0A79B6193870B","country":"de","latitude":51.0,"longitude":9.0},
{"fingerprint":"896FCE19CB53A73A21DC874977C06B28FC9A8BBA","country":"us","city_name":" D.C.","latitude":38.9085,"longitude":-77.0177},
{"fingerprint":"C6440F2F111B89A3D4705F2F2A52DAA89B197C33","country":"us","latitude":38.0,"longitude":-97.0},
{"fingerprint":"730BF05A9E388D223357EF37914A8108D5B6611C","country":"jp","latitude":35.69,"longitude":139.69},
{"fingerprint":"8A0ADB8C728619B7610F661B8EA23C492BE24516","country":"de","latitude":51.0,"longitude":9.0},
{"fingerprint":"6CA8345B674DAF59EDF0AD3C02060DFF7C280170","country":"fr","latitude":48.86,"longitude":2.35},
{"fingerprint":"24851933A8B0AE26B8EACA33A76E2C641A59681F","country":"de","latitude":51.0,"longitude":9.0},
{"fingerprint":"8CA6372F8CC9AD3925C186AA068A8F8D9D8F6938","country":"de","city_name":"Lichtenberg","latitude":50.8333,"longitude":12.15},
{"fingerprint":"713AD5E923D9D90D3472022B6FD987B06C2DF8F3","country":"de","city_name":"Frankfurt am Main","latitude":50.1167,"longitude":8.6833},
{"fingerprint":"7E9D4B9BACF1E8086FB9F1F1FC3F4DCD474EAF20","country":"fr","city_name":"Thiais","latitude":48.765,"longitude":2.3961},
{"fingerprint":"B7CDFC4D1FF2C53903DDF9D3605F299AE9CB892A","country":"ua","latitude":49.0,"longitude":32.0},
{"fingerprint":"5EB562F40613EC85A707364B543F1A1178862E9B","country":"jp","city_name":"Tokyo","latitude":35.685,"longitude":139.7514},
{"fingerprint":"4407AC0C7A21141B8ED3BCEAE5FA8E6F87E4EF6F","country":"de","latitude":51.0,"longitude":9.0},
{"fingerprint":"68CE167F7CC73A719BF3C02641012B18FCA2D12F","country":"pl","latitude":52.0,"longitude":20.0},
{"fingerprint":"8A0C07A78F083323878839A782EE89510E230BAA","country":"ch","latitude":47.0,"longitude":8.0},
{"fingerprint":"52BCBE24730C2CC5A31074410E13F88E5E4CB60C","country":"us","city_name":"San Diego","latitude":32.8073,"longitude":-117.1324},
{"fingerprint":"309CBDA40F1EDB8BC08969F578F7AFCC905D9DE2","country":"at","latitude":47.3333,"longitude":13.3333},
{"fingerprint":"BAD5A3BB5AAEC159EAC4EEB75F522841345FF525","country":"sv","city_name":"San Salvador","latitude":13.7086,"longitude":-89.2031},
{"fingerprint":"F614E2945D961AF680BB94C0CBA6EAD297ED2060","country":"de","latitude":51.0,"longitude":9.0},
{"fingerprint":"594E40B7A0A6A042C209BE6DB899DB0CEFFD86C8","country":"nl","latitude":52.5,"longitude":5.75},
{"fingerprint":"B151892A2D7A014A495CB440EFBBDBEC2B9C5920","country":"fr","latitude":48.86,"longitude":2.35},
{"fingerprint":"224607B57833F2B6076E055A6EACBDFEBBEA5B72","country":"ie","latitude":53.0,"longitude":-8.0},
{"fingerprint":"5F111874C43ABF8F75CC813B45249243E6E367BD","country":"ca","city_name":"Ottawa","latitude":45.2882,"longitude":-75.7566},
{"fingerprint":"9EFEF3F49BD66166F4CB693B8BF1AA6BFCE37B62","country":"de","city_name":"Ulm","latitude":48.4171,"longitude":9.9635},
{"fingerprint":"4062761897A5219C01393F399A307E3F651A1824","country":"us","latitude":38.0,"longitude":-97.0},
{"fingerprint":"C0363CB78445D8CF237D037E2CFF426858DBA2C9","country":"us","city_name":"Spring Grove","latitude":39.8494,"longitude":-76.8662},
{"fingerprint":"F3B57BB429B4CA82A844B713E42666DF4BF7B8EE","country":"de","latitude":51.0,"longitude":9.0},
{"fingerprint":"1D491A8EA575392FE7B4540E9B1FD0F4E092D098","country":"de","city_name":"Munich","latitude":48.2043,"longitude":11.5585},
{"fingerprint":"A02FDFB5C94368189246FEE1D85030FB6936B1D8","country":"pl","city_name":"Przemysl","latitude":49.7825,"longitude":22.7923},
{"fingerprint":"BB1A82D8800FF1AF32A9CE185C1F7A48B826955A","country":"us","city_name":"San Jose","latitude":37.3338,"longitude":-121.8915},
{"fingerprint":"120F42BD0C859EFF5B0C86DA619E13D12B36361A","country":"nl","latitude":52.5,"longitude":5.75},
{"fingerprint":"B04F59286CADE3C97617A8801E782C8241AA649B","country":"nl","latitude":52.5,"longitude":5.75},
{"fingerprint":"C22242F2E28D2CCCB262014A12B02E2B4CBDFB37","country":"ru","city_name":"Volgograd","latitude":48.7194,"longitude":44.5018},
{"fingerprint":"34672EB4345446DD034518F6E1480D3D132BC301","country":"nz","city_name":"Christchurch","latitude":-43.5333,"longitude":172.6333},
{"fingerprint":"7839179698DAB4ECB82A91587B69A8624C8CEDEE","country":"se","latitude":62.0,"longitude":15.0},
{"fingerprint":"8C4514F5A12A2C3C87DA2E814EB065B34E853277","country":"de","city_name":"Hamburg","latitude":53.5614,"longitude":9.9447},
{"fingerprint":"FD75FFF7F0CA80A48F589FF8945DDE4E7777CCC8","country":"se","city_name":"Trollhattan","latitude":58.2667,"longitude":12.3},
{"fingerprint":"1CB2C005C35DC878A4AD49AB22F50583AE99E4F1","country":"ru","latitude":60.0,"longitude":100.0},
{"fingerprint":"4ED33415952FA52DB95411A1DA86663EC1B109B9","country":"us","city_name":"Absecon","latitude":39.4899,"longitude":-74.4773},
{"fingerprint":"4D1CCAD1A6451DFB67C79DFB2E487F90BCFC0266","country":"il","city_name":"Tel Aviv","latitude":32.0667,"longitude":34.7667},
{"fingerprint":"0D76FDD327E78E4B8F14DCD08A32C76B2E837BF1","country":"fi","city_name":"Helsinki","latitude":60.1756,"longitude":24.9342},
{"fingerprint":"5BE3570A285FA83654BA18C588B04A232581C7F3","country":"fr","city_name":"Paris","latitude":48.8331,"longitude":2.3264},
{"fingerprint":"F2244A8D5DA14359CDA1DAB70F328E62E74E9837","country":"us","latitude":38.0,"longitude":-97.0},
{"fingerprint":"A56EA79BAD76C916F010870C7EE002510546BAC0","country":"de","latitude":51.0,"longitude":9.0},
{"fingerprint":"09A1634D9CA9CC8D61B177A1438A70EDDB8D5D36","country":"fr","latitude":48.86,"longitude":2.35},
{"fingerprint":"A34D12D681DD8D97FB1B101FFE4C6A159887C515","country":"fr","latitude":48.86,"longitude":2.35},
{"fingerprint":"A960700A421704DE1D1FB80A9E8D8ED5E2A31BC8","country":"fr","latitude":48.86,"longitude":2.35},
{"fingerprint":"F8C2B84442B3B2489C919D4804E818704CA91439","country":"es","latitude":40.0,"longitude":-4.0},
{"fingerprint":"4457ABA263A1745FE0C3CAEEE24529ACCA95238C","country":"us","city_name":"Chicago","latitude":41.8776,"longitude":-87.6272},
{"fingerprint":"5C30EEE4D8F1B9434673F9DD19771523068346C0","country":"us","city_name":"Absecon","latitude":39.4899,"longitude":-74.4773},
{"fingerprint":"1160A29CC2C07F796BFC0303C933AC522D2FF448","country":"de","city_name":"Bad Kleinen","latitude":53.7667,"longitude":11.4667},
{"fingerprint":"DD10929A62645F4F5CE3AD71015CCCB0CFC69B05","country":"de","city_name":"Host","latitude":51.65,"longitude":6.1833},
{"fingerprint":"77404480DFBB75987CCE098C412D61A7DB13A25F","country":"de","latitude":51.0,"longitude":9.0},
{"fingerprint":"7022D27519C22926A067E5B9BB07F90B95FAD6E7","country":"us","city_name":"Seattle","latitude":47.6062,"longitude":-122.3321},
{"fingerprint":"98ED9CDE9B4EDF24E733BD779F7738F61C277E5C","country":"fr","latitude":48.86,"longitude":2.35},
{"fingerprint":"27D78E4ABD016F92951541978B37D4541778BA03","country":"us","city_name":"Kansas City","latitude":39.1068,"longitude":-94.566},
{"fingerprint":"2ECEEA6F7CCBA0F8292EBA4642E32555F65F3BE9","country":"fr","city_name":"Paris","latitude":48.8646,"longitude":2.3984},
{"fingerprint":"16BFC297489882FBA60D40D821DE96299180BD16","country":"us","city_name":"Chicago","latitude":41.8776,"longitude":-87.6272},
{"fingerprint":"7D1EF3C2467C2DB68E1DE6E13EE5C73319A1F772","country":"us","latitude":38.0,"longitude":-97.0},
{"fingerprint":"F11E90D7F54DA500EA59F6FB6255790E0318921C","country":"ch","city_name":"Schmitten","latitude":46.8493,"longitude":7.2515},
{"fingerprint":"3B50CF566B45E0BCC47FE90DE0A7103AF00C1B67","country":"us","city_name":"New York","latitude":40.7267,"longitude":-73.9981},
{"fingerprint":"89B900297DD48A20B943E0B5A0B086687D8F7553","country":"dk","city_name":"Randers","latitude":56.4607,"longitude":10.0364},
{"fingerprint":"E2B2F21FC29B35CF0232260E85DF47658C4E7D46","country":"us","city_name":"Humble","latitude":29.9988,"longitude":-95.2622},
{"fingerprint":"7B8B083157372DB2994FEB5B075BBAE22BA2DC4F","country":"it","city_name":"Cologno Monzese","latitude":45.5333,"longitude":9.2833},
{"fingerprint":"2C9CE8D71041D0475A26D9F82D783E9FE42DB8CE","country":"us","city_name":"Absecon","latitude":39.4899,"longitude":-74.4773},
{"fingerprint":"13179386E4479A09DF7222385D2D1B0E336126A1","country":"de","latitude":51.0,"longitude":9.0},
{"fingerprint":"7E0765F48DC9F63B5B8E338DD35EB0E9D252F9BD","country":"us","city_name":"New York","latitude":40.7421,"longitude":-74.0018},
{"fingerprint":"8C0EAEFA635CB0E4040A8D49092BB98BE22F5CAF","country":"us","city_name":"San Antonio","latitude":29.4889,"longitude":-98.3987},
{"fingerprint":"BF97B645E47AF80852774310188E42F170C8A494","country":"pl","city_name":"Krakow","latitude":50.0833,"longitude":19.9167},
{"fingerprint":"295864F314B388E3AC9275B44BFE9766CB5667F7","country":"de","city_name":"Langenhagen","latitude":52.4506,"longitude":9.7492},
{"fingerprint":"FA78199DCD16ACBC0FE5C84CC39436547E080B9E","country":"us","city_name":"Smarr","latitude":32.9854,"longitude":-83.8821},
{"fingerprint":"0F7D1928C4D180300A06D7D9E677C936BEBED251","country":"ch","city_name":"Thun","latitude":46.7554,"longitude":7.6236},
{"fingerprint":"6956D6FD781142204B9175E4FD341DFE0683F5A0","country":"lt","city_name":"Kaunas","latitude":54.9,"longitude":23.9},
{"fingerprint":"2BBE56D722FD4CF912A872AD4422E3864B228649","country":"de","city_name":"Host","latitude":51.65,"longitude":6.1833},
{"fingerprint":"AA19610A2EE994364E19D5C6C12A08F4B8D2E96D","country":"fr","latitude":48.86,"longitude":2.35},
{"fingerprint":"A063CA7A86A67E71BF645BE095AA79BF44A8603C","country":"de","latitude":51.0,"longitude":9.0},
{"fingerprint":"73DDA6A7C08BC55858CF763EE17C1550F9DC9924","country":"jp","city_name":"Atsugi","latitude":35.4389,"longitude":139.3597},
{"fingerprint":"3C2D5B63997365B59438CBEAEE1E217FE041A1E1","country":"lu","latitude":49.75,"longitude":6.1667},
{"fingerprint":"F815279CF1072200F3189B67D126AB5E9018C1C0","country":"de","city_name":"Isselburg","latitude":51.8309,"longitude":6.4561},
{"fingerprint":"2FB7476F377F16606B2C130A1738CD57AFC327C2","country":"ch","latitude":47.0,"longitude":8.0},
{"fingerprint":"0EF41B5694FC08CF7C193F3CD614072ED437EDFA","country":"ru","city_name":"Tomsk","latitude":56.4977,"longitude":84.9744},
{"fingerprint":"63BF47C6F7AF57D371D044CD252ACF356CF6B9C9","country":"us","city_name":"New York","latitude":40.7143,"longitude":-74.006},
{"fingerprint":"AD805F79DE50FCDD2F2153062A4F5F307232CBEB","country":"nl","city_name":"The Hague","latitude":52.0833,"longitude":4.3},
{"fingerprint":"CDFC225F9EF606994FE40F8880244C9C5C9810F1","country":"ro","latitude":46.0,"longitude":25.0},
{"fingerprint":"C98497473E993F55EE247C369D99CADF56E63452","country":"kr","city_name":"Seoul","latitude":37.5985,"longitude":126.9783},
{"fingerprint":"4E67B01C7FD49027A3951AD980660EDF7EF83A6B","country":"us","city_name":"Indianapolis","latitude":39.8401,"longitude":-86.0548},
{"fingerprint":"7C6D65459DC0FD1A0385E32C21725027FC10FF48","country":"jp","latitude":35.69,"longitude":139.69},
{"fingerprint":"99BB5C8899A954682892B71A148DCD7795B2F81D","country":"us","city_name":"Seattle","latitude":47.6606,"longitude":-122.2919},
{"fingerprint":"10687693ECE35F7C90B6D5728597A035602D5A62","country":"fr","latitude":48.86,"longitude":2.35},
{"fingerprint":"DA295AD39930E23BAC963E0A42A54B2C28D6D41E","country":"us","city_name":"Buffalo","latitude":42.9864,"longitude":-78.7279},
{"fingerprint":"EFEEFE073FA3D4300C7C5CCF4A9CF915787A6B23","country":"nl","latitude":52.5,"longitude":5.75},
{"fingerprint":"02BAD9C86E9A29A0CBDCB74C8FBD6CC87B1B9CBC","country":"de","city_name":"Heidelberg","latitude":49.4062,"longitude":8.6868},
{"fingerprint":"286C946984CEC554C67CFF2F3358074217CD647B","country":"us","city_name":"Kansas City","latitude":39.1472,"longitude":-94.5735},
{"fingerprint":"81D8BDAEB86E16AAEC2EB4A395A791E43A73C351","country":"se","city_name":"Enskede-Arsta-Vantoer","latitude":59.2833,"longitude":18.0667},
{"fingerprint":"52FFFF0C1BD558DC50D48F31B249463C3F4208EC","country":"de","latitude":51.0,"longitude":9.0},
{"fingerprint":"3610A88666C5CE6D5BA3D279A63CA5821145481B","country":"de","latitude":51.0,"longitude":9.0},
{"fingerprint":"C17C27F04269C5F76FD9786ACC1C963B0BE3CEEC","country":"ru","city_name":"Samara","latitude":53.1835,"longitude":50.1182},
{"fingerprint":"FD8BC35BAB19659ACEA7C652EC6EB4EDE164B4AE","country":"ni","city_name":"Managua","latitude":12.1508,"longitude":-86.2683},
{"fingerprint":"B035D07FB91EF419D00B0E2CEFEDD9A163EC4E1B","country":"nl","latitude":52.5,"longitude":5.75},
{"fingerprint":"BC3A16B0FE415CEDBCEC5A63A5C64E5C2DBA8EF5","country":"se","latitude":62.0,"longitude":15.0},
{"fingerprint":"82DB8B132AC34DF8E91954B68576A0D854674CBC","country":"hr","city_name":"Zagreb","latitude":45.8,"longitude":16.0},
{"fingerprint":"F06D367F32DD076F0EEC11AEE6F1DCED1B2AC2D1","country":"fr","latitude":48.86,"longitude":2.35},
{"fingerprint":"6AF3135ACB65877EAA0F70D60D7BCCCDB3AA9AA9","country":"ru","latitude":60.0,"longitude":100.0},
{"fingerprint":"36CE5B1F42FF191FC25513E61D3DB75B5CC1029E","country":"us","city_name":"Providence","latitude":41.6929,"longitude":-111.8147},
{"fingerprint":"71C926A001D916BCA5D3233DE8E7CD9F0E5F58E1","country":"de","latitude":51.0,"longitude":9.0},
{"fingerprint":"4607EB748FA6E90E8F8B1F8FFC6C31D68A661119","country":"de","latitude":51.0,"longitude":9.0},
{"fingerprint":"FFD1F0927A0A5303F8A8641D8C731931DCDFFB08","country":"ca","latitude":60.0,"longitude":-95.0},
{"fingerprint":"A6E6F079C5325BA71666B265E85D4A2F8B79D415","country":"de","city_name":"Hamburg","latitude":53.5884,"longitude":10.0896},
{"fingerprint":"2C54BD4310A3AEF066D751C23FD7D960917D3F04","country":"us","city_name":"Chicago","latitude":41.8776,"longitude":-87.6272},
{"fingerprint":"1A801605E006A061DD2EEC4C6A0F9FEF76A7ED7C","country":"ua","city_name":"Lviv","latitude":49.8407,"longitude":24.0305},
{"fingerprint":"7682EF0EAC6CE20743796759DCFF045A8FF697E0","country":"gb","latitude":51.5,"longitude":-0.13},
{"fingerprint":"206AF593E21433282A5A41D61E104523B9E99199","country":"fr","latitude":48.86,"longitude":2.35},
{"fingerprint":"052F285C253A375C9AD452A5DC6FDEE75E733DF1","country":"de","latitude":51.0,"longitude":9.0},
{"fingerprint":"8F001343A87BF0B5B1F631F0DCDE3324C06E324C","country":"hr","latitude":45.1667,"longitude":15.5},
{"fingerprint":"0F6DE14DDBED224B0695AE672B6195D24292821E","country":"de","city_name":"Host","latitude":51.65,"longitude":6.1833},
{"fingerprint":"7D23C56567520BF90613F0511DDF0176597E4708","country":"us","latitude":38.0,"longitude":-97.0},
{"fingerprint":"76B3E1E4BD519538341D2D61250A7EBB961CF2ED","country":"ch","latitude":47.0,"longitude":8.0},
{"fingerprint":"0C45C27D16B6C023D536AE82AB7FA2289D618305","country":"ch","latitude":47.0,"longitude":8.0},
{"fingerprint":"2ABDA5C06F3DD1A977560D196D1F1A6F1B3E6D32","country":"de","latitude":51.0,"longitude":9.0},
{"fingerprint":"298AF70E5CA7E2A64CF0D6DE8B4357F4778C2B50","country":"ru","city_name":"Moscow","latitude":55.7522,"longitude":37.6156},
{"fingerprint":"0F8BF1A72F6B20AF959F8AC18CF7789AA3D1B1A2","country":"de","city_name":"Garching bei Munchen","latitude":48.2499,"longitude":11.6309},
{"fingerprint":"3BB8BE7A50B864A29EC671B9D4533C4D118AED4F","country":"ca","city_name":"Toronto","latitude":43.6565,"longitude":-79.4079},
{"fingerprint":"B3CF8717737530A09884CFEC4884442548F3D8C3","country":"se","city_name":"Ingelstad","latitude":56.75,"longitude":14.9167},
{"fingerprint":"E03A4FDDC05A8DEFB093D831BB1C6A6EE84A81DE","country":"at","city_name":"Innsbruck","latitude":47.2667,"longitude":11.4},
{"fingerprint":"A19004F75704447E9FA01055B8BB8DFD106117DC","country":"de","city_name":"Nuremberg","latitude":49.4478,"longitude":11.0683},
{"fingerprint":"9C60DEC4E63684F33876AF48453CC1903792B4A4","country":"ru","city_name":"Bibayevo","latitude":55.0038,"longitude":50.0549},
{"fingerprint":"833657AE9FBD8A31157F77FFA749ADEA41D1500C","country":"de","latitude":51.0,"longitude":9.0},
{"fingerprint":"2DE827E0A349AEBE42E233F3B5ABE821321BFC8D","country":"ua","latitude":49.0,"longitude":32.0},
{"fingerprint":"3DB34AD0A909B3BBC101A38C72069DB42714E618","country":"de","latitude":51.0,"longitude":9.0},
{"fingerprint":"071E3A54AD2D764B7D4EF64FA5E36D62BDBF644A","country":"fr","latitude":48.86,"longitude":2.35},
{"fingerprint":"9C1B900096C4EEB2E72CE068825AC31DDFDAFE96","country":"de","city_name":"Neubulach","latitude":48.65,"longitude":8.7},
{"fingerprint":"0FF6A58297919325FF256BAF66E4526F42195916","country":"ru","city_name":"Belgorod","latitude":50.6107,"longitude":36.5802},
{"fingerprint":"EF5057CD4FE3ECABEF12E486DEDB9878DAD461B9","country":"de","city_name":"Taufkirchen","latitude":48.05,"longitude":11.6167},
{"fingerprint":"C8218B3A35F9782726942CCFC491C42B1ADF30FB","country":"gb","latitude":51.5,"longitude":-0.13},
{"fingerprint":"0AD108EB5F18EEF3639F51389F37BFC36584DF08","country":"sg","latitude":1.3667,"longitude":103.8},
{"fingerprint":"80E1674A420162170F6FB2105878F5940B6B474F","country":"de","latitude":51.0,"longitude":9.0},
{"fingerprint":"37ADE79DB453FC3380576F409F2C725979259D5F","country":"us","city_name":"Chicago","latitude":41.8194,"longitude":-87.6079},
{"fingerprint":"8BAE8DF0F6168D0CA4BDD94103CADE47280E86D7","country":"de","city_name":"Hamburg","latitude":53.5701,"longitude":9.8654},
{"fingerprint":"8893D8C983B3F01B1ECFE9487DEC601C41F097AE","country":"de","city_name":"Rosrath","latitude":50.9182,"longitude":7.1979},
{"fingerprint":"C80D599B4CD571BB1D900503A8AEBCBD85C209BD","country":"ae","city_name":"Dubai","latitude":25.2582,"longitude":55.3047},
{"fingerprint":"1D46A267538EFA2FB195AD48E2836C14B716B992","country":"us","latitude":38.0,"longitude":-97.0},
{"fingerprint":"616081EC829593AF4232550DE6FFAA1D75B37A90","country":"fr","latitude":48.86,"longitude":2.35},
{"fingerprint":"A504DD279D4F51FDF5F0859DF1003ADB0761ED68","country":"si","latitude":46.0,"longitude":15.0},
{"fingerprint":"10ACB1A6DC72FF289AC98B42F24AE3C10116287C","country":"de","latitude":51.0,"longitude":9.0},
{"fingerprint":"A8A90469E21231FB3EDB262EAA9D714F001F44A0","country":"de","latitude":51.0,"longitude":9.0},
{"fingerprint":"94D70C8D61C2402E3800E4450D7A0F073AC03C71","country":"il","latitude":31.5,"longitude":34.75},
{"fingerprint":"40D0F847A96572BD2093ED193B54DE5D12058FFA","country":"se","city_name":"G\u00C3\u00A4llivare","latitude":67.1333,"longitude":20.7},
{"fingerprint":"7FC2F3042EC36FD714D1EFE9AF3D5BF81F6D04C7","country":"fr","latitude":48.86,"longitude":2.35},
{"fingerprint":"1C113F11F933DC46FEC61F260F05264341C7EC76","country":"lu","latitude":49.75,"longitude":6.1667},
{"fingerprint":"B827D00F6ED51B9397CA397E91D431E8F60C67E4","country":"es","city_name":"Barcelona","latitude":41.3917,"longitude":2.1782},
{"fingerprint":"D86A16D55840417B7F20E81E6BF20411E13D097A","country":"de","latitude":51.0,"longitude":9.0},
{"fingerprint":"053C3143DB86A09B5B2EA06603C3F320BABD06C5","country":"us","city_name":"Apple Creek","latitude":40.7384,"longitude":-81.7905},
{"fingerprint":"5207BCFE2DFAAC62157943F420A6C3CCC00E467E","country":"tw","latitude":23.5,"longitude":121.0},
{"fingerprint":"71DD3C8354A40B23759EDBA4A6DD4F49A82A1BFC","country":"ru","latitude":60.0,"longitude":100.0},
{"fingerprint":"A9443349ABBA49645511932CB5F5F6BF120631E8","country":"de","city_name":"Munich","latitude":48.1558,"longitude":11.5409},
{"fingerprint":"7A8DC2ED73A83225D5120E7A62ADA7EE30124F3B","country":"us","city_name":"Lawrence","latitude":38.9717,"longitude":-95.2352},
{"fingerprint":"231C2B9C8C31C295C472D031E06964834B745996","country":"de","latitude":51.0,"longitude":9.0},
{"fingerprint":"20C561C789A2B3428B0653E8EBFD4E60B30FDD42","country":"de","latitude":51.0,"longitude":9.0},
{"fingerprint":"953CFBFCF6E9298DFD60B786DF2B2FBA96213B88","country":"sk","latitude":48.6667,"longitude":19.5},
{"fingerprint":"42F9AE18891D112BFCDC40296F3B40B2BBE8A3DF","country":"ie","latitude":53.0,"longitude":-8.0},
{"fingerprint":"D3EFD79F85E3F6A9BB01B03D2AC4ADDD56744C11","country":"de","city_name":"Bad Bellingen","latitude":47.7319,"longitude":7.5561},
{"fingerprint":"EF2FBCF8A29A0EBE61F7827813DE3DB2B8C68554","country":"us","city_name":"Absecon","latitude":39.4899,"longitude":-74.4773},
{"fingerprint":"0783B897040FFC93B2B327309440EE10E37D98F5","country":"jp","city_name":"Tokyo","latitude":35.685,"longitude":139.7514},
{"fingerprint":"041B50F3AFF126FC2E95E025EB5505C9333567B1","country":"fr","latitude":48.86,"longitude":2.35},
{"fingerprint":"90C3EC97B9EAB4E9AC0D1DA38F739B22E754C67F","country":"us","city_name":"Duluth","latitude":46.7833,"longitude":-92.1066},
{"fingerprint":"C9BC38A8D97CD6869B2BD30BE0CBFD0F2DA76AD3","country":"us","city_name":"San Jose","latitude":37.3338,"longitude":-121.8915},
{"fingerprint":"5B46DC6A52EC97104218BF994847FEADCAC1E248","country":"rs","latitude":44.0,"longitude":21.0},
{"fingerprint":"372CE9C2AD986533FC585C61EDE4F3EA18869402","country":"is","latitude":65.0,"longitude":-18.0},
{"fingerprint":"424BAB646AD5A5BFFF0AF188B6616433CA50406F","country":"de","city_name":"Frankfurt am Main","latitude":50.1167,"longitude":8.6833},
{"fingerprint":"A9185BA58701CAAE76BD160B81F696A747C55D66","country":"cz","city_name":"Ceska","latitude":49.2814,"longitude":16.5648},
{"fingerprint":"6F6F1F34AF11261066B4E56E494DB639BAEB55B5","country":"ru","city_name":"Izhevsk","latitude":56.8498,"longitude":53.2045},
{"fingerprint":"ED8AD3B9BC765DD76827DA8A5F9D768DEB6AFB58","country":"ro","city_name":"Turnu Ruieni","latitude":45.3833,"longitude":22.3333},
{"fingerprint":"806C5945BBC758C1364774CDFF8975BA68569A4E","country":"ru","latitude":60.0,"longitude":100.0},
{"fingerprint":"952C1DC8193AE53683F99E6BB8270C86388A4150","country":"nl","city_name":"Eindhoven","latitude":51.45,"longitude":5.4667},
{"fingerprint":"D2C85D2A4B82AA2DFA517324256CBD96E8AE6742","country":"nl","city_name":"Amsterdam","latitude":52.35,"longitude":4.9167},
{"fingerprint":"55D7DCDFF2D724E3D4C709259D2C3726ECCC7C1D","country":"ru","city_name":"Moscow","latitude":55.7522,"longitude":37.6156},
{"fingerprint":"021F3B12A358AF44E489F382E06D9B73666543D2","country":"gb","city_name":"London","latitude":51.5142,"longitude":-0.0931},
{"fingerprint":"CD6B850159CFF4C068A8D0F1BA5296AE4EDCAB39","country":"fr","latitude":48.86,"longitude":2.35},
{"fingerprint":"7930856E7747CBD85D2D6DC1456C416CE5D448D3","country":"de","city_name":"Munich","latitude":48.1223,"longitude":11.6205},
{"fingerprint":"721248AB854A2FABDB31CA4DC354867D88F06944","country":"ca","city_name":"Montreal","latitude":45.5335,"longitude":-73.6464},
{"fingerprint":"289996506AA2E66530F82C25F05D4BA1135DCFCD","country":"de","city_name":"Weinbohla","latitude":51.1667,"longitude":13.5667},
{"fingerprint":"B61B2AC32AE9C5B588447330D7831569461D65BC","country":"mx","city_name":"Mexico City","latitude":19.4342,"longitude":-99.1386},
{"fingerprint":"8B56F325A46F972D19E31012B8C2330FD7A16B02","country":"us","city_name":"Bloomington","latitude":39.2499,"longitude":-86.4555},
{"fingerprint":"C8878D72A7C2E1B9CA99AFB77D536728550E0B81","country":"ru","city_name":"Moscow","latitude":55.7522,"longitude":37.6156},
{"fingerprint":"D5B84A10DDAE734E9CB90ED96D8FFA2F4E705D99","country":"de","latitude":51.0,"longitude":9.0},
{"fingerprint":"409C09E5AABFCE112027B1A86179C966F4632CDB","country":"us","city_name":"Buffalo","latitude":42.9864,"longitude":-78.7279},
{"fingerprint":"16034BD4F8B0AF98911C3AFE9F96ACAC8DAC9B71","country":"de","latitude":51.0,"longitude":9.0},
{"fingerprint":"211DBE349428301FE0AD6547BD43EE68C09FF20C","country":"de","city_name":"Luckenwalde","latitude":52.0888,"longitude":13.1638},
{"fingerprint":"EC169E4563AB0716428C14A4DE8DE8929DF0576A","country":"de","city_name":"Obertshausen","latitude":50.0697,"longitude":8.844},
{"fingerprint":"8406E862DE6B9C1CD22EEF1C67FC5CE8C7C47816","country":"de","latitude":51.0,"longitude":9.0},